driver_id,full_name,phone,vehicle_type,vehicle_plate,current_lat,current_lon,current_area,city,rating,total_trips,joined_at,is_active
aac69683-a7c8-4177-97e5-82c8a5968a5e,Lestari Pratama,081893366112,Motor,B 5055 SM,3.637306,98.706809,Medan Timur,medan,4.3,1990,2023-07-07 21:49:26,1
80c24adf-bdba-46cf-89a6-c48f5605dde7,Dinda Anggraini,083233985908,Motor,B 9115 ZC,-6.133607,106.86512,Jakarta Utara,jakarta,4.7,638,2021-12-01 13:10:03,1
c22bb62f-78be-4dda-bcd3-591df4308929,Arif Wati,088548570760,Motor,B 3306 PR,-6.261109,106.823016,Jakarta Selatan,jakarta,3.8,3906,2023-01-18 15:56:07,1
9f183beb-5c64-486e-8774-deb742b7e059,Dimas Nugroho,082486811437,Motor,B 6989 IS,3.559377,98.677875,Medan Barat,medan,4.6,3574,2023-04-19 22:57:39,1
18d26a9e-ae45-4a67-8498-fe9717f7c921,Siti Suharto,081833361175,Motor,B 8834 PD,3.619388,98.698085,Medan Kota,medan,4.2,3165,2023-06-30 04:36:53,1
22927523-5e39-47f4-96ba-045e538b4c40,Fajar Utami,085838613502,Motor,B 5457 PB,3.559264,98.677277,Medan Barat,medan,4.9,2551,2021-09-18 06:27:48,1
fa6e0533-0d4c-4d60-9b9e-8e2eda4145c8,Dinda Wijaya,083116663794,Motor,B 8225 HC,3.629698,98.749562,Medan Timur,medan,4.1,359,2023-04-14 20:23:22,1
26ed3ed6-b699-44ee-81ec-c2500997d1d1,Fifi Firmansyah,088673617767,Mobil,B 7418 WP,3.592689,98.707051,Medan Timur,medan,5.0,1632,2021-07-17 13:00:44,1
b3961e07-f378-4576-8866-2c8f96edbc13,Dimas Utami,088316877887,Motor,B 9226 QJ,-7.247961,112.744025,Surabaya Pusat,surabaya,4.9,4792,2023-10-04 05:59:20,1
81d6ab00-5f6a-4b82-9ddf-2998649ef14f,Lestari Saputra,082418957641,Motor,B 4806 XI,-7.258974,112.746519,Surabaya Pusat,surabaya,4.1,384,2023-12-27 19:04:43,1
d1b72d0d-5153-47f3-9424-8303093548af,Sari Putra,084375821743,Motor,B 9375 CA,3.60258,98.692137,Medan Kota,medan,4.6,3256,2022-01-17 03:19:32,0
a801fec6-fc50-414c-8b6e-082a367124d2,Siti Setiawan,082628371125,Mobil,B 2062 MH,-6.233194,106.931827,Jakarta Timur,jakarta,4.0,2825,2022-03-14 22:25:03,0
a0328d8f-2ca9-48c1-8e12-b2a820f1f7ab,Fifi Santoso,082473893121,Motor,B 3793 JB,3.615514,98.716337,Medan Timur,medan,4.5,74,2021-04-23 02:42:11,0
7c29fc76-b071-44ab-b4d9-a1a96d962c2e,Ayu Rahayu,086783577739,Motor,B 5727 CE,3.551229,98.659603,Medan Barat,medan,4.9,3987,2021-02-07 03:02:40,1
53ade8af-edbd-4bdb-b15a-2bae3f94e62a,Bagas Nugroho,088628140806,Motor,B 3759 TD,-7.288013,112.717144,Surabaya Barat,surabaya,4.9,1982,2023-02-20 03:58:37,1
d0c6f61a-f631-4833-b705-35e2656509e4,Rizky Saputra,089316077355,Motor,B 9122 IH,-7.243764,112.749163,Surabaya Pusat,surabaya,4.6,3177,2021-09-13 14:13:00,1
0c88e809-0d6c-479d-ac92-30849d210581,Aldi Santoso,089038582041,Motor,B 7177 PE,-6.184088,106.842841,Jakarta Selatan,jakarta,4.4,2250,2021-08-15 01:22:26,1
5f952119-16f6-4b1a-83f6-5c66766ccec9,Nisa Suharto,087130030035,Motor,B 5013 HJ,3.610046,98.661007,Medan Kota,medan,4.6,1309,2023-09-10 22:52:42,0
e88c5158-23d6-49c5-883a-6e41d96c96b0,Kevin Rahayu,085823462357,Mobil,B 6798 QG,-6.261978,106.801996,Jakarta Selatan,jakarta,4.0,2239,2023-11-10 01:51:23,1
337fb0c0-1900-4eeb-95f8-bfb75793e91b,Bagas Putra,089921237842,Motor,B 3348 JX,3.551773,98.706892,Medan Kota,medan,4.9,1175,2022-03-11 22:02:05,1
ac7133ff-c59c-4c27-8f55-e12147114cf7,Citra Utami,087359727946,Motor,B 3250 QW,-6.122507,106.842642,Jakarta Utara,jakarta,4.3,1230,2021-02-18 09:19:32,1
f2c3dbd6-2bb3-4cf7-8766-9b4606698717,Siti Wati,081391354508,Motor,B 4776 NO,-7.261583,112.693247,Surabaya Barat,surabaya,4.2,3022,2021-05-09 21:58:18,1
6cb4b0b7-5f0c-4c5b-a09f-3266287382be,Putri Suharto,084451059320,Motor,B 8590 HP,3.563482,98.666764,Medan Barat,medan,3.7,4615,2021-10-20 07:00:31,1
395d5184-b3d3-4661-a4e1-77986a8bff6e,Fajar Pratama,087257377808,Motor,B 8330 UU,-6.182513,106.810299,Jakarta Selatan,jakarta,4.8,1803,2023-02-05 04:49:45,1
22f64eda-43a3-4a99-a96a-b565a102db4b,Reza Wijaya,082362262983,Motor,B 4532 DE,-6.183088,106.805672,Jakarta Selatan,jakarta,4.8,3451,2022-01-27 21:20:24,1
b062d5e3-807b-4ebd-8132-f44198a32fc5,Indah Rahayu,086614687154,Motor,B 8826 DP,3.63197,98.718909,Medan Timur,medan,3.6,721,2023-10-11 04:44:25,1
af894ef7-f96a-44a8-99c9-6522e97c6d33,Arif Firmansyah,089359918884,Motor,B 1280 DG,-6.25677,106.821637,Jakarta Selatan,jakarta,4.0,4524,2022-04-19 22:22:57,1
48aa4211-3429-43c8-b473-41ff5cc4ffb0,Reza Pratama,086635845239,Motor,B 1387 VU,-6.20713,106.796653,Jakarta Selatan,jakarta,4.5,1093,2021-02-19 19:43:20,1
1adea6fe-c0aa-4b12-986d-ce78870a7c88,Rina Wati,082694655719,Mobil,B 1644 ZM,3.617465,98.687805,Medan Kota,medan,4.3,4567,2023-12-17 18:13:58,0
f046040a-23c2-46aa-88b9-b262e788f050,Fifi Utami,086248093719,Mobil,B 4741 TX,3.550051,98.683643,Medan Kota,medan,4.4,3721,2022-05-01 19:57:29,0
5093a4ad-4b6c-4a57-a8ad-0c1c3746ecde,Arif Rahayu,088320856957,Motor,B 1294 ET,-7.246953,112.7425,Surabaya Pusat,surabaya,4.9,2510,2023-06-23 21:03:29,1
505d93ab-839c-4b97-9310-757be5418626,Ayu Kusuma,086659540012,Motor,B 3105 TX,-7.257207,112.746311,Surabaya Pusat,surabaya,4.1,2384,2023-02-17 17:07:49,0
0d6b0012-099e-4c2f-b713-50cd4633a440,Tari Pratama,081163194290,Motor,B 4230 GF,-6.274482,106.864074,Jakarta Selatan,jakarta,3.9,3221,2023-08-05 05:52:03,1
1a0b12a6-62fc-4e10-a3a6-3f978e6dde9f,Lestari Putra,082419918995,Motor,B 2526 XM,-6.12491,106.850911,Jakarta Utara,jakarta,3.9,2075,2022-10-04 07:58:33,1
9f69a068-d539-431e-be55-654d2d44f29d,Mega Saputra,088673404630,Motor,B 8086 SA,-7.262325,112.738307,Surabaya Pusat,surabaya,3.6,131,2021-01-06 12:48:05,1
5d7e573c-e6df-4ec5-9bf2-785f39fa9908,Siti Anggraini,081180899398,Motor,B 4109 SC,3.563938,98.661218,Medan Kota,medan,3.8,2200,2023-08-21 13:32:09,0
e7586aaa-cc91-4641-b179-050b6114e89d,Mega Pratama,088179491468,Motor,B 2652 YF,-6.144164,106.861325,Jakarta Pusat,jakarta,4.4,76,2022-04-29 04:00:45,1
4d3c4639-bfbf-4cdc-8d97-77c3348f1a22,Ayu Anggraini,086326716654,Mobil,B 1544 YC,-6.104911,106.901851,Jakarta Utara,jakarta,3.5,4040,2021-08-19 08:18:35,1
4b2a5a05-95b1-413e-83d9-6081c884ce19,Maya Wati,089122684033,Motor,B 2595 LY,-7.282858,112.75632,Surabaya Timur,surabaya,3.6,3409,2021-03-15 04:20:37,0
0da82e10-3d0b-4a29-bae1-e4dda907381c,Putri Firmansyah,089130726478,Motor,B 8169 VO,-7.271831,112.697341,Surabaya Barat,surabaya,4.8,3330,2022-10-25 21:39:44,1
4b75dce9-c785-4df1-8358-4023d9b4999c,Dimas Pratama,081990105064,Motor,B 3287 EG,-6.173235,106.86775,Jakarta Pusat,jakarta,4.1,1962,2021-09-13 10:31:56,0
af407051-2dde-469e-ba84-25f8e77afdf2,Wahyu Kusuma,089256450555,Motor,B 8894 MZ,-6.135566,106.778528,Jakarta Barat,jakarta,3.7,1879,2021-07-17 21:21:54,0
989e7ebb-1539-446d-a837-6a5bcfe93bee,Putri Wati,084379067288,Motor,B 2362 PY,3.59071,98.669127,Medan Kota,medan,4.7,2356,2023-06-22 16:54:13,1
7e7f2820-9da3-4f01-bce1-45e359150126,Ahmad Hidayat,087573675680,Mobil,B 4661 XA,3.605899,98.655146,Medan Kota,medan,4.9,1649,2022-12-24 13:58:47,1
b4f37c10-7d9a-44de-a696-78bfda99afee,Bagas Pratama,086137989832,Motor,B 8273 BD,-6.155948,106.78362,Jakarta Barat,jakarta,4.7,4215,2023-08-13 18:26:53,1
c349b768-7f55-4153-97ae-b69c3006a0b7,Sari Setiawan,082633260625,Motor,B 4802 VK,-6.223101,106.855892,Jakarta Selatan,jakarta,4.3,1126,2021-11-29 23:00:43,1
9f5d913b-cf72-411e-9144-bdd762688e0b,Arif Kusuma,082866074629,Motor,B 2247 AD,-6.257231,106.813337,Jakarta Selatan,jakarta,3.9,2260,2021-08-08 05:19:26,1
72161af2-09a3-418c-abb7-f7eb51712d80,Dimas Putra,086670665647,Mobil,B 1205 XY,-6.160948,106.771239,Jakarta Barat,jakarta,4.1,1249,2022-07-09 20:00:15,1
b9417f9b-526e-4442-b588-6146b00d0ec2,Budi Setiawan,084941474607,Motor,B 1437 HW,3.561905,98.638624,Medan Barat,medan,3.7,4963,2022-10-02 21:12:11,1
e1f8f511-f303-43c6-9785-00591158f8a2,Eko Wati,086099240932,Mobil,B 5783 XR,3.597343,98.63052,Medan Barat,medan,4.0,851,2022-11-23 21:55:53,0
b21d1643-a8be-4e6e-845a-d27758bb8495,Rizky Nugroho,089760420820,Motor,B 8473 MN,-7.229901,112.755727,Surabaya Timur,surabaya,4.0,3514,2023-05-26 12:28:31,1
ab6dbb73-c99c-4e51-bced-0c9e29099d6a,Siti Kusuma,088031481923,Mobil,B 8453 WJ,3.579902,98.674574,Medan Barat,medan,4.1,2285,2023-04-27 06:44:36,1
556a4b37-278f-41e5-821a-c93d04679251,Aldi Pratama,084749582495,Mobil,B 3807 BB,3.600367,98.715672,Medan Timur,medan,3.7,4027,2023-10-27 19:11:42,0
c7f8c50b-d49d-4884-888a-223c68a48dc1,Rina Anggraini,089680093188,Motor,B 4842 PE,-7.255518,112.748001,Surabaya Pusat,surabaya,4.5,1426,2021-03-13 19:52:43,1
32cca23e-82fc-4b1b-baa3-c57a2f4516f7,Dimas Kusuma,081897963754,Mobil,B 2012 KZ,3.605668,98.74774,Medan Timur,medan,4.8,3903,2021-07-28 22:33:42,0
68fe7b54-cb00-4f2f-9b13-861579c84ba4,Siti Putra,081629464622,Motor,B 4150 BI,3.578617,98.639645,Medan Barat,medan,3.8,409,2023-01-25 16:26:25,0
3a05ca36-cb3f-46fc-9902-40581b24820d,Eko Saputra,082158369406,Motor,B 3957 HQ,-7.241109,112.742735,Surabaya Pusat,surabaya,4.3,520,2023-06-05 11:58:59,1
945c9f9b-d700-417f-8440-af890dcc2719,Gilang Kusuma,087226474335,Motor,B 1832 MG,3.55049,98.670078,Medan Barat,medan,3.6,4388,2022-07-23 23:32:24,1
b1a2412c-11ec-494e-82a2-990cc273682a,Kevin Saputra,085846362851,Mobil,B 3296 UT,3.618028,98.721595,Medan Timur,medan,4.7,279,2023-10-31 09:50:10,0
6bdbb7a1-a09f-49b1-aab1-9242cd7fe9af,Aldi Rahayu,084273947449,Motor,B 8904 BI,3.577932,98.655977,Medan Kota,medan,3.7,539,2022-04-17 06:10:21,1
0d4c38dc-7483-425f-82f9-ab83f177eefa,Citra Putra,087776141583,Motor,B 1440 AS,3.566491,98.68149,Medan Kota,medan,4.3,2230,2022-06-22 07:36:25,1
a8d03d24-cc6c-4804-bf9b-a7bf1f9b680c,Hendra Nugroho,086142238553,Motor,B 9437 UD,3.621809,98.740284,Medan Timur,medan,3.8,2663,2022-04-07 12:35:41,1
20995d39-7d8f-4b0e-8fd2-3f94ce066485,Eko Santoso,083676229947,Mobil,B 1919 EU,-7.252793,112.749275,Surabaya Pusat,surabaya,4.7,4090,2021-02-19 19:17:13,0
75cde5d3-d480-469f-a0c7-e4492249c9fc,Gilang Setiawan,081542472174,Motor,B 8116 TU,-6.226268,106.913517,Jakarta Timur,jakarta,4.2,143,2022-11-29 05:57:12,1
d46ce118-b1a6-4450-8562-a00333359c53,Dimas Rahayu,088541737742,Motor,B 5563 SG,3.5822,98.63109,Medan Barat,medan,5.0,2207,2023-08-11 14:48:19,1
b501eef7-879e-4fc4-85bf-6fc14bfd41d7,Siti Kusuma,088168879508,Motor,B 7824 UF,-7.261124,112.7682,Surabaya Timur,surabaya,3.7,2667,2022-06-07 11:04:31,1
86f6dba3-1de7-46f4-9b57-8eac6a73cc83,Indah Suharto,085494998103,Motor,B 9541 UT,3.594056,98.635365,Medan Barat,medan,3.6,3154,2021-02-08 21:23:55,1
908eb2da-a563-4b4a-9eb0-644668ac30d7,Ahmad Anggraini,085820490277,Mobil,B 4575 DH,3.568595,98.690747,Medan Kota,medan,4.9,1629,2022-01-21 21:41:03,0
b369e98f-cca7-4dd9-a78f-73bef60777d1,Sari Santoso,084499380882,Motor,B 4094 FX,-6.163857,106.803698,Jakarta Barat,jakarta,4.6,2121,2022-03-07 20:46:14,1
42cb73ed-9da8-47d0-9d66-3d6a9b25ac13,Rizky Hidayat,082254064126,Motor,B 9263 NR,3.586673,98.715099,Medan Timur,medan,3.7,905,2022-07-16 19:01:55,0
929da8da-1f43-42d7-8cb3-e7a44585650a,Dinda Anggraini,088543862494,Motor,B 8190 UW,3.582578,98.630911,Medan Barat,medan,4.8,249,2022-10-21 00:21:23,1
7da66b69-40df-404c-a1f1-64d3584795d5,Dewi Kusuma,085469008820,Motor,B 7437 AE,-7.20073,112.79887,Surabaya Timur,surabaya,4.5,4359,2021-09-15 08:45:16,1
ec048fc3-bfd0-4bbe-b057-fca7ae679e0d,Ahmad Suharto,087016902069,Mobil,B 8998 LT,3.620915,98.735004,Medan Timur,medan,4.1,2707,2021-02-21 03:20:29,1
affa2fa8-9d17-45a9-8398-2d3584910ef8,Lestari Utami,086793283748,Mobil,B 7904 JZ,-7.298111,112.792098,Surabaya Timur,surabaya,4.5,67,2023-10-09 22:43:52,1
e949b1f9-04a0-4960-8d32-c1ae35ba1db7,Aldi Rahayu,086019307232,Motor,B 6085 NN,-7.259036,112.751436,Surabaya Timur,surabaya,3.7,3386,2023-06-24 03:12:38,1
c2d41568-2f7e-4c3b-b5e8-5fe3ba67b596,Citra Putra,082777364046,Motor,B 3867 MD,-6.195401,106.795317,Jakarta Selatan,jakarta,4.7,2261,2021-10-06 03:18:18,1
1a16fc58-4baa-4cf8-89e1-c7fd8d8b3c52,Yoga Nugroho,087656146613,Motor,B 4448 NQ,-7.27076,112.76435,Surabaya Timur,surabaya,3.6,2255,2023-04-19 06:34:12,1
042fffbc-6391-4c3f-944a-b4b5353e42d1,Indah Rahayu,089783846845,Motor,B 1697 XU,-7.286671,112.676332,Surabaya Barat,surabaya,4.5,3697,2021-08-01 21:40:11,1
57e4c046-bd73-4d01-9d83-6cad904ee321,Dewi Kusuma,088815459004,Motor,B 9553 QX,3.568663,98.657393,Medan Kota,medan,4.3,562,2023-06-26 09:57:37,1
08b10782-9349-4107-90be-b2b7f3bde3c8,Aldi Firmansyah,089938240162,Motor,B 4630 WJ,3.624283,98.746329,Medan Timur,medan,4.4,3483,2021-02-12 16:39:04,0
49f8e9b5-4234-4df9-ae0a-f89c05d61afb,Dimas Saputra,082624559267,Motor,B 9914 KF,-7.241216,112.733202,Surabaya Pusat,surabaya,3.7,1797,2021-07-08 22:39:21,1
0450424a-8dd5-4a61-94dc-29d3f669f349,Mega Wati,084974844927,Mobil,B 1139 IT,3.609394,98.655552,Medan Kota,medan,4.6,4691,2023-04-09 14:40:42,1
d20f2e56-620d-482a-bb14-d0ca185fd011,Dimas Wati,083988187911,Motor,B 6078 HY,-6.27827,106.842883,Jakarta Selatan,jakarta,4.6,4223,2022-03-07 02:41:27,1
c6577e34-8a0f-4d06-a13b-6fcf46587064,Lestari Putra,088238056608,Mobil,B 9550 QI,-7.232828,112.746678,Surabaya Pusat,surabaya,3.8,37,2022-11-12 17:28:22,1
6e5a5bfc-04d0-4499-b5ff-070b776bb42d,Kevin Hidayat,084533970082,Mobil,B 4553 AA,-7.25949,112.749829,Surabaya Pusat,surabaya,4.4,437,2021-06-07 11:22:22,0
6dae1b94-f6be-441d-bb0f-4cec0a710a76,Hendra Setiawan,083529833549,Motor,B 5450 BC,-6.186298,106.935835,Jakarta Timur,jakarta,3.7,1425,2023-03-03 21:46:41,1
dfdb3ef0-46ea-41b6-aad0-754dbfae3443,Reza Nugroho,084033055452,Motor,B 8597 LU,-6.195932,106.873788,Jakarta Timur,jakarta,4.5,272,2022-12-08 05:34:38,0
457d7a92-2d90-4487-be67-d7ca4464bc0d,Fifi Santoso,086566264559,Motor,B 1915 VK,-6.157375,106.861521,Jakarta Pusat,jakarta,4.1,3044,2021-12-29 11:30:49,1
63276fb8-9a03-4758-b3ad-e77f4235b7f8,Reza Nugroho,082065303620,Motor,B 8448 EZ,-6.147068,106.841772,Jakarta Pusat,jakarta,4.2,2611,2021-12-30 13:17:02,1
b24cf0f7-a6fe-4c7d-b474-2b8dd7963508,Hendra Firmansyah,086422614625,Motor,B 9845 NS,3.597537,98.698902,Medan Kota,medan,4.3,2295,2021-09-25 11:04:26,1
03c01614-bf07-405e-8e09-f8a91a4f18eb,Ayu Santoso,081349602482,Motor,B 3372 FS,-7.271173,112.689661,Surabaya Barat,surabaya,3.9,4527,2023-08-29 19:19:22,0
db504340-5fae-4595-9028-d4ffbb5de869,Arif Wijaya,082481872042,Motor,B 8591 BX,3.587136,98.74111,Medan Timur,medan,3.6,176,2023-06-10 22:50:13,1
d96ccce9-39d6-450d-b82d-4ad75607883e,Wahyu Hidayat,086153165738,Motor,B 8755 DT,-6.226909,106.930672,Jakarta Timur,jakarta,4.0,2724,2023-01-20 14:07:44,1
4c461b8d-d913-4ccf-909a-44f738b41442,Ayu Setiawan,086352082683,Motor,B 8601 MP,-7.262363,112.731384,Surabaya Pusat,surabaya,5.0,1894,2023-10-05 16:16:42,0
b6d6eb81-36fb-4d09-a393-e01f9a364f16,Citra Anggraini,081363460926,Motor,B 6640 TW,-6.232969,106.962037,Jakarta Timur,jakarta,3.8,1291,2021-07-02 03:28:19,1
cc4f52eb-62f2-4cd5-bf5f-6e960091cae9,Fifi Wijaya,083293844091,Motor,B 5478 QN,-6.173938,106.849924,Jakarta Pusat,jakarta,3.6,692,2021-05-31 13:47:10,1
28adce3e-56dc-45e3-9961-5ddd4d10993a,Kevin Wati,089821477571,Motor,B 2511 FB,-6.134586,106.742101,Jakarta Barat,jakarta,4.9,2088,2022-06-15 09:54:25,1
3dc3ec5d-7222-4f3a-ab80-1d963480ffe3,Indah Hidayat,083880021797,Motor,B 6279 HK,-7.26961,112.692653,Surabaya Barat,surabaya,4.6,3212,2023-04-30 11:37:41,1
b2101504-0be8-442c-85c3-f92492b595a6,Reza Wati,089616344309,Motor,B 4120 OH,-7.280787,112.7079,Surabaya Barat,surabaya,4.1,3823,2023-11-26 11:39:19,1
bfb7a8cb-faea-4e74-b205-cedcedc83fda,Wahyu Setiawan,081171121822,Mobil,B 9861 HG,3.586269,98.673186,Medan Kota,medan,4.7,4322,2021-10-15 12:07:21,0
0f3f2577-919e-4119-8a28-5ddde3e59c8e,Aldi Suharto,085558908198,Mobil,B 6743 HC,-6.145363,106.797143,Jakarta Barat,jakarta,3.6,369,2021-07-31 03:32:18,0
f39a9d1e-82f5-4ec7-b769-588fc0ce9fbd,Tari Kusuma,087052828992,Mobil,B 2160 IQ,3.622636,98.722172,Medan Timur,medan,4.4,524,2021-10-01 07:03:15,1
6540a0b2-0677-4eb6-904a-1dd75bbe5670,Mega Pratama,088776516329,Motor,B 5515 OI,3.593384,98.697551,Medan Kota,medan,3.5,2744,2023-05-07 10:34:28,0
2413a381-70d5-412d-8106-48d2622edfa9,Yoga Wati,083169675451,Motor,B 6909 IK,3.640332,98.714127,Medan Timur,medan,4.8,1396,2023-04-03 22:18:07,1
3690efee-88f9-48cf-8683-31a7940fe1d9,Eko Pratama,081479987656,Motor,B 3234 FX,-7.259025,112.746264,Surabaya Pusat,surabaya,4.4,1603,2023-08-14 19:13:30,0
cd5c9e04-586f-49de-934b-fe596c162c0a,Eko Wati,089543130703,Motor,B 2902 JV,-6.130859,106.748564,Jakarta Barat,jakarta,3.7,4838,2021-03-29 03:46:40,1
ab51c41e-5ae1-4d1f-8ec9-4c7a3c568939,Dinda Wati,084393734848,Motor,B 3866 QG,-7.297977,112.680929,Surabaya Barat,surabaya,3.7,4648,2022-07-29 22:04:19,1
4409efd8-02c8-464e-9e4c-9bb8dc7bb815,Wahyu Wati,086714140199,Motor,B 5851 TC,-6.15433,106.841337,Jakarta Pusat,jakarta,3.6,3402,2023-06-17 12:09:21,1
040b1289-ddea-488a-af9b-4169741e377c,Kevin Nugroho,086329197896,Mobil,B 5471 XM,3.612007,98.727865,Medan Timur,medan,4.2,1721,2021-01-04 01:41:30,0
1d9214d6-903d-4027-be93-6651b2a23b6c,Dinda Wati,088033568616,Motor,B 3233 PT,-6.142281,106.856747,Jakarta Pusat,jakarta,4.7,465,2022-09-21 04:14:15,1
4062259a-e1f2-4215-82c9-6c9c060051e4,Ayu Suharto,085698766745,Mobil,B 7341 GV,3.558885,98.65498,Medan Barat,medan,5.0,4211,2022-12-15 00:15:56,1
ea396329-67cc-4a44-a8ac-c8f021d261f0,Putri Anggraini,088834205171,Motor,B 7268 PI,-6.17201,106.830754,Jakarta Pusat,jakarta,4.0,2392,2022-05-01 03:12:08,1
3bcac340-92f0-4927-a385-47ab3e9118fb,Tari Anggraini,085761835748,Motor,B 4324 NQ,-6.263601,106.832914,Jakarta Selatan,jakarta,3.8,1939,2023-10-25 14:34:38,1
475bc927-9ba1-4d5d-b1ae-ef40c74422be,Nisa Santoso,087649311181,Mobil,B 8242 JB,-7.296572,112.764591,Surabaya Timur,surabaya,4.2,2367,2023-04-02 04:28:33,1
c6d56b83-8638-45ee-b670-ba7da00113ae,Fifi Nugroho,082375516472,Motor,B 9859 ZI,-7.24945,112.742481,Surabaya Pusat,surabaya,4.3,2620,2023-12-22 15:06:57,1
ef2ffbf1-1edc-4f75-9328-33b9704b261c,Maya Saputra,083076223246,Motor,B 1230 OU,3.584819,98.633617,Medan Barat,medan,4.6,1684,2022-10-24 05:38:09,1
3d1bb6cb-9835-47f7-82f3-ad0b2912895d,Tari Wati,086043542857,Motor,B 3797 GM,-6.276449,106.794533,Jakarta Selatan,jakarta,3.8,4158,2021-05-29 10:05:47,0
8b78391e-f5c5-47c0-bf92-ba67df295d5a,Dewi Putra,082038471901,Motor,B 8779 HN,-7.206386,112.753979,Surabaya Timur,surabaya,4.1,4921,2023-12-30 19:33:36,0
f01a2cf7-406a-488f-9887-1bd0207b654a,Nisa Putra,088668831220,Motor,B 7238 FM,3.590487,98.691289,Medan Kota,medan,4.1,784,2022-02-25 17:40:43,1
7309591a-f2d8-4574-84ad-7fdc89585ac0,Mega Utami,087315509074,Motor,B 8293 GF,3.592161,98.733201,Medan Timur,medan,5.0,919,2021-08-03 10:45:38,0
08955f14-698b-4e7c-bad0-c65fa9cbccab,Arif Utami,086697350727,Motor,B 7604 YE,-6.27148,106.818345,Jakarta Selatan,jakarta,4.2,905,2022-10-29 02:57:20,0
973130f6-86ad-4453-921e-9700a91af719,Sari Wati,084329397935,Mobil,B 8998 QN,-6.131818,106.789683,Jakarta Barat,jakarta,4.6,3675,2023-02-17 01:27:28,1
f38a5617-70be-417a-b0b1-302e911883b4,Hendra Wijaya,082612318587,Mobil,B 2734 EX,-6.164988,106.767887,Jakarta Barat,jakarta,4.1,3911,2022-01-22 17:22:43,0
e67eafe0-f1ca-4789-b447-687f3f2aad2d,Tari Wati,087471234358,Mobil,B 2658 WW,-6.165532,106.85093,Jakarta Pusat,jakarta,4.1,4989,2021-07-15 00:17:54,0
ac6f7645-3fe6-45b2-bcb7-d6217b839ff1,Mega Utami,087441365924,Motor,B 2256 SP,-7.231097,112.732906,Surabaya Pusat,surabaya,4.8,4746,2021-11-29 07:45:21,0
e53334d7-b32d-4d93-9428-fe165ef22e6d,Dewi Rahayu,081820829801,Motor,B 7403 CA,-7.254698,112.668617,Surabaya Barat,surabaya,4.4,552,2021-07-29 18:10:37,1
cf053b2b-a078-4035-ac79-1efdad4abc75,Mega Pratama,088786075415,Motor,B 9042 NW,3.565763,98.662916,Medan Barat,medan,4.4,3836,2021-12-21 15:20:51,1
8e8373be-7622-48a2-ab2f-f66810234595,Lestari Hidayat,086769408270,Motor,B 1454 CI,3.599769,98.638099,Medan Barat,medan,4.9,1665,2022-06-13 15:12:29,1
bbf16c10-8c99-4acf-a698-89835a05486b,Putri Santoso,086819717833,Mobil,B 3323 YX,3.622941,98.713386,Medan Timur,medan,4.2,3581,2022-02-07 23:34:21,0
8001e3fb-ca97-499a-82bf-c30d6fc2c12f,Nisa Santoso,089252327629,Mobil,B 5111 DH,-7.21381,112.765379,Surabaya Timur,surabaya,3.6,201,2022-09-15 16:18:58,0
da8fd31e-15cc-43d8-89b8-a3b8fb316711,Tari Nugroho,082892588958,Motor,B 6464 DG,3.600694,98.692904,Medan Kota,medan,5.0,2915,2022-09-30 22:17:09,1
fbd9758e-c808-4427-92c3-044fe8c98d69,Citra Setiawan,081163989428,Motor,B 1959 NU,-7.294789,112.782861,Surabaya Timur,surabaya,4.0,4873,2022-07-21 03:55:42,1
18248fdb-3386-4094-9e29-98b68ff7b66f,Eko Hidayat,083140434355,Mobil,B 6281 AK,-6.166219,106.945039,Jakarta Timur,jakarta,5.0,2417,2021-11-22 12:51:02,1
e47a933e-7804-4d48-b78a-8cac248842c7,Sari Suharto,085934471441,Motor,B 1911 MW,-6.248993,106.887419,Jakarta Timur,jakarta,4.3,3712,2022-06-06 17:41:08,1
53713aab-6085-441d-8ecf-ccbe2c2a3422,Siti Putra,082838675535,Motor,B 8717 UZ,-7.273734,112.709344,Surabaya Barat,surabaya,3.6,2699,2022-08-09 13:40:36,1
c2a0d67a-06d5-4057-afeb-a5eb7fcb2511,Dewi Rahayu,087761667483,Mobil,B 6213 VE,-6.160559,106.867089,Jakarta Pusat,jakarta,3.9,195,2023-09-11 11:43:13,0
9252fb4a-27ab-4d38-9fdd-414adbfb5ae6,Tari Firmansyah,089259631247,Motor,B 8435 KP,-7.258182,112.672124,Surabaya Barat,surabaya,5.0,2129,2022-04-21 14:58:20,0
2c6696ef-97eb-4987-b631-58da4eca11c5,Dewi Suharto,088126108729,Mobil,B 6088 FI,-7.23538,112.741446,Surabaya Pusat,surabaya,4.6,515,2022-03-16 03:11:18,1
ee91ef87-aab4-49a9-be7a-d16c410223b9,Yoga Wijaya,086416751982,Motor,B 3901 WE,3.564542,98.646166,Medan Barat,medan,3.7,2720,2022-10-18 12:43:25,0
3d999a29-4576-490a-ab51-f554937bc0f2,Putri Pratama,084523051623,Mobil,B 9899 VC,-7.284315,112.768772,Surabaya Timur,surabaya,4.8,4293,2023-11-19 04:33:48,1
7ab6a707-0715-44a9-9b9d-872080e5bae0,Maya Firmansyah,088161266573,Motor,B 5895 NT,-7.229515,112.769463,Surabaya Timur,surabaya,3.7,964,2023-12-11 23:57:09,1
2c6d9052-b905-445d-b0aa-21153747611d,Kevin Putra,085674277931,Motor,B 2477 FF,-7.237272,112.737629,Surabaya Pusat,surabaya,4.6,3888,2022-10-28 21:43:26,0
ae024cc2-3e68-450b-a77a-35d44f179530,Citra Wijaya,087861948235,Motor,B 2042 HT,-6.166649,106.814151,Jakarta Barat,jakarta,3.6,311,2023-04-19 14:51:42,1
743d4e60-52a8-4077-9083-81558e5ad014,Arif Putra,083952602681,Motor,B 8890 DJ,-7.292973,112.701252,Surabaya Barat,surabaya,3.8,268,2023-07-01 09:15:10,1
e9342bab-d716-4716-8080-b6945ecdb177,Wahyu Wijaya,082955025224,Motor,B 4754 KG,-6.136671,106.838272,Jakarta Utara,jakarta,4.4,2370,2021-07-05 07:05:06,1
f2fe0f7c-4505-4e94-b734-74ab7610b21f,Lestari Santoso,086485381939,Motor,B 7422 NZ,3.570158,98.638891,Medan Barat,medan,4.6,365,2023-08-11 21:37:59,1
5100f97b-3101-409d-929a-55d8f720b3fd,Putri Wijaya,081820353782,Motor,B 3156 AC,-7.249399,112.736625,Surabaya Pusat,surabaya,4.0,1277,2022-08-07 19:56:07,1
84a07e9a-aae8-4670-9716-de6c9631495e,Eko Nugroho,089869865280,Motor,B 5472 CB,3.593628,98.642714,Medan Barat,medan,4.0,2941,2021-07-31 21:10:28,0
3ce426b7-66fd-4c3b-be5d-103e86f042da,Bagas Santoso,088913397860,Motor,B 6248 EM,3.586556,98.655349,Medan Barat,medan,3.5,905,2023-02-19 16:42:42,1
8cdc7d69-718d-425d-b477-f52ace4df60d,Dewi Wati,083575264580,Motor,B 2758 DE,3.631762,98.713827,Medan Timur,medan,3.8,646,2022-04-16 14:31:09,1
4a8c34f1-8389-46d5-ac55-d06fbf40c206,Nisa Setiawan,081433518268,Motor,B 7022 IR,-7.259398,112.761449,Surabaya Timur,surabaya,4.0,4627,2023-12-30 09:30:15,0
cceb5260-e5a3-47e2-97ce-490801678189,Citra Putra,087215104181,Motor,B 6674 NE,3.609961,98.674267,Medan Kota,medan,4.3,2383,2022-03-17 19:04:21,1
6c79b1a8-73e4-4aed-ab9e-3c8571662f06,Reza Setiawan,082122505361,Mobil,B 1710 WT,-6.114339,106.891059,Jakarta Utara,jakarta,5.0,1468,2023-08-14 04:37:01,1
fa88ed5b-4074-413c-b8e7-0a013821497c,Maya Firmansyah,086522274599,Motor,B 7260 CK,-7.267347,112.789168,Surabaya Timur,surabaya,4.7,79,2021-01-12 05:04:26,1
30027ca7-bb78-4521-9866-0c138361abc3,Lestari Kusuma,082530152532,Motor,B 7871 TQ,3.581381,98.672537,Medan Barat,medan,4.7,308,2021-03-18 09:07:59,0
d5525e3b-7446-402f-99cc-6cad23d654c5,Mega Rahayu,085261772428,Motor,B 4087 SV,3.602954,98.74628,Medan Timur,medan,3.9,3418,2022-04-25 12:30:41,0
5780bce9-08b3-407c-976b-a9a5e5457fa3,Dimas Nugroho,087560206663,Motor,B 6509 DT,-7.293705,112.7641,Surabaya Timur,surabaya,4.6,247,2023-06-30 23:54:28,1
deca480b-e20e-4211-be61-1d65e55339c2,Aldi Santoso,083727201333,Mobil,B 7648 YE,-7.222724,112.753056,Surabaya Timur,surabaya,4.6,2796,2021-05-31 23:24:49,1
ad48798b-5315-4de4-b4de-d8617b45bf39,Bagas Nugroho,081442050486,Motor,B 1012 FI,-6.162253,106.832404,Jakarta Pusat,jakarta,4.1,3945,2022-10-13 18:11:05,0
21c82a30-49dc-4e52-bdbe-befe03757858,Maya Santoso,086449420899,Motor,B 1927 QB,-7.244505,112.792845,Surabaya Timur,surabaya,5.0,553,2021-01-12 22:12:24,0
17dc0d33-2bd5-4d8b-9e48-b9019f6fa975,Nisa Nugroho,083133617854,Motor,B 9637 KL,-7.234124,112.742281,Surabaya Pusat,surabaya,3.7,3680,2021-02-25 18:10:39,1
35c3c88a-2ead-4ed0-b08c-9fb4ea72b160,Ahmad Nugroho,081999118952,Motor,B 1865 HU,3.619178,98.705508,Medan Kota,medan,4.4,2817,2023-02-04 20:02:40,1
b4e244ef-947d-444a-8e0c-9072d888cb6a,Indah Firmansyah,084989536302,Motor,B 5002 UP,3.595886,98.710964,Medan Timur,medan,3.9,3080,2021-04-02 11:29:22,0
31a449ff-ac9b-4e00-848e-b7ca36681d84,Fajar Utami,088934706155,Mobil,B 4358 MS,-6.160022,106.975363,Jakarta Timur,jakarta,4.5,1914,2022-01-27 03:07:08,1
25f8e084-ff62-4185-8554-dbf71e408c71,Citra Wijaya,089363592869,Motor,B 1806 NJ,-6.173154,106.773484,Jakarta Barat,jakarta,3.8,1873,2021-02-10 01:06:34,1
6e17db1e-fbda-4a4b-96a6-aa9830ff791a,Nisa Rahayu,082247035934,Motor,B 7310 RF,3.602584,98.678284,Medan Kota,medan,4.2,2787,2022-09-24 07:13:54,1
82674737-0488-4a34-b267-1603ab3a4288,Hendra Kusuma,089730820826,Motor,B 2189 CP,-7.268524,112.741626,Surabaya Pusat,surabaya,4.2,3021,2022-07-01 18:07:15,1
4592941a-dff6-488a-91f4-96ec9c38c479,Citra Suharto,083018857492,Motor,B 6606 ED,3.562107,98.665385,Medan Barat,medan,4.6,4763,2023-08-31 15:22:53,1
beaa65ff-0468-4fc4-bc75-f964e8d4fbf6,Budi Utami,088576476695,Motor,B 8701 GT,3.622108,98.711872,Medan Timur,medan,4.4,2991,2021-06-05 14:20:58,1
e0fa9709-16db-406c-9f4d-da2bc8688c91,Yoga Setiawan,086482639400,Mobil,B 4186 KT,-6.147082,106.851506,Jakarta Pusat,jakarta,3.9,1162,2021-12-16 21:17:57,1
b38479fd-e569-4294-a554-b9685316499f,Kevin Suharto,085043452427,Mobil,B 9019 BT,-7.2566,112.676518,Surabaya Barat,surabaya,4.1,1284,2021-08-01 08:35:05,1
8de18c64-ea84-40ef-9a92-b370ddea27cb,Nisa Santoso,083524694757,Motor,B 2042 YT,3.585579,98.675472,Medan Kota,medan,5.0,2466,2022-02-16 08:28:00,1
cb2788bb-7cca-4a64-a7bb-8e6cf9ea82d6,Dimas Wati,084517611166,Motor,B 3261 PW,-7.248357,112.731577,Surabaya Pusat,surabaya,3.9,2816,2022-01-31 22:26:41,0
219edbd9-a5df-41e7-ba74-142051d2cd7d,Eko Wati,082777024414,Motor,B 4002 UA,3.560865,98.675885,Medan Kota,medan,4.2,2261,2021-05-02 11:39:19,1
b40e307a-bac8-40d0-ac5b-003b8c4d2af4,Gilang Firmansyah,087278215832,Motor,B 3148 UQ,3.616264,98.70818,Medan Timur,medan,4.8,2657,2021-10-26 22:40:40,1
e821e574-1c0e-4bcc-9658-579e22de6ea8,Nisa Hidayat,081746173735,Motor,B 1448 XS,-6.110424,106.910592,Jakarta Utara,jakarta,4.3,1854,2022-10-20 01:00:20,0
f8f1939b-3b05-4bdb-b218-a2439a76641d,Mega Anggraini,082181557970,Motor,B 8636 YJ,-6.158548,106.823808,Jakarta Pusat,jakarta,3.9,351,2021-04-07 10:49:25,1
91df5b35-0e44-4757-a0ba-9626a8956637,Ahmad Firmansyah,083027051686,Motor,B 7839 JS,3.584358,98.642493,Medan Barat,medan,5.0,1825,2021-08-30 14:50:18,0
3b270113-f730-473c-8948-4c65cb29df4a,Hendra Firmansyah,085514588498,Motor,B 9251 SG,-6.148285,106.80227,Jakarta Barat,jakarta,4.0,3486,2023-10-13 13:31:04,1
a86114f3-dddd-4366-82e7-e8c63d900fa8,Fajar Kusuma,085036740920,Mobil,B 8788 UJ,-7.267937,112.785505,Surabaya Timur,surabaya,4.7,1301,2023-09-22 23:54:13,0
394574bf-7c1c-449f-b1ea-c427af8252af,Ayu Putra,085426351608,Motor,B 6887 JX,3.576624,98.688388,Medan Kota,medan,4.5,1110,2022-08-29 12:16:32,1
11a7f18f-73a6-45d0-b854-f2dce0d07c22,Reza Rahayu,085482673198,Motor,B 2608 XU,3.561439,98.677508,Medan Barat,medan,4.3,521,2021-12-08 08:11:01,1
39424378-59f9-4eab-84ef-7c9ab1b98640,Maya Utami,088356898727,Motor,B 4466 WT,3.584202,98.642602,Medan Barat,medan,4.6,869,2021-07-12 02:53:44,1
3cb1a528-8458-4a21-936f-ebb1d70d85c4,Eko Anggraini,082035011758,Motor,B 7992 DY,-6.146824,106.861013,Jakarta Pusat,jakarta,4.7,3716,2022-10-14 19:02:54,1
bfc62f59-c8b4-4e1c-b598-b3f6880848de,Fajar Wati,089623408894,Motor,B 3424 ZU,3.603182,98.690226,Medan Kota,medan,4.5,4247,2023-09-15 23:27:07,1
6f2a2161-25d4-43e8-8828-6a006cd7be3f,Citra Kusuma,089377189599,Motor,B 1027 BO,-6.169978,106.836293,Jakarta Pusat,jakarta,3.9,4486,2023-05-03 05:13:42,0
c2f694f2-e6d0-4c4e-a76c-3147b5cf05f4,Siti Suharto,084184642078,Motor,B 1938 RM,-6.162531,106.846144,Jakarta Pusat,jakarta,4.1,2719,2023-03-18 07:58:46,1
4ee21c62-3de3-4a0b-a2e9-c378a9f4f3ed,Aldi Kusuma,082842430732,Motor,B 4454 MI,3.59355,98.716615,Medan Kota,medan,4.7,4704,2022-06-27 22:09:36,1
83136d99-2fed-44cd-b229-d9e726ccf025,Wahyu Saputra,088229266679,Motor,B 6942 JQ,-7.26891,112.796337,Surabaya Timur,surabaya,4.3,2977,2021-03-21 21:00:21,0
9ab6051d-579c-4b47-b7e2-a85c0d057029,Nisa Kusuma,089496365163,Motor,B 8879 PF,-6.243178,106.838095,Jakarta Selatan,jakarta,4.1,1063,2022-07-21 03:42:07,1
c25b0930-6bf4-402d-9d13-a3d50570a1ec,Aldi Hidayat,082870681192,Motor,B 6571 ZB,-6.276021,106.839045,Jakarta Selatan,jakarta,4.2,578,2021-07-30 04:02:04,1
87d2c1fa-1c2b-47a2-85b0-23005f441a3b,Indah Saputra,087678690775,Motor,B 3135 EP,-6.12863,106.867559,Jakarta Utara,jakarta,3.7,2569,2023-03-08 07:08:18,1
18375c75-109a-4bee-8e2c-6452a0995637,Bagas Saputra,085277788346,Mobil,B 9275 VP,-7.277617,112.753166,Surabaya Timur,surabaya,3.8,445,2022-06-30 15:09:12,1
8d54c016-291b-44b8-b62a-46ed816299d4,Aldi Nugroho,086811635686,Motor,B 8877 UG,-7.25448,112.719308,Surabaya Barat,surabaya,4.2,3326,2023-01-09 17:18:01,1
c072d700-61f4-4ab6-87cf-ccca7846d8ae,Dewi Anggraini,088387406630,Motor,B 7621 XL,-7.261884,112.738867,Surabaya Pusat,surabaya,4.7,732,2021-10-17 09:48:49,1
16ce716c-ba2b-47cc-a74d-052a6f356286,Fajar Firmansyah,088846480790,Mobil,B 1599 RH,3.576315,98.677869,Medan Barat,medan,4.0,3571,2021-08-24 17:30:33,0
8f44ccde-8416-4405-8310-289c63837997,Putri Suharto,081946397375,Mobil,B 9028 OU,-6.125257,106.843157,Jakarta Utara,jakarta,3.9,4680,2023-05-30 13:32:05,1
d3eb7576-0fb8-4ba6-9810-55d73760eb7d,Arif Anggraini,081082711594,Motor,B 4162 FA,-6.11855,106.857907,Jakarta Utara,jakarta,4.2,3204,2022-03-19 22:19:03,1
89f108e9-9f5b-43ac-a2ac-9266246128c2,Gilang Rahayu,085527391955,Motor,B 4770 TC,-7.223448,112.753252,Surabaya Timur,surabaya,4.4,2887,2022-05-15 11:44:33,1
f98db3db-6164-4f8a-84b9-7f953fb6d77b,Fajar Santoso,087987282881,Mobil,B 4283 XP,3.613074,98.703141,Medan Kota,medan,4.8,425,2023-10-26 14:29:22,1
32b37e89-723f-4161-877f-8963a9486b13,Tari Pratama,082725252738,Motor,B 9206 YG,3.613178,98.747689,Medan Timur,medan,4.4,1715,2021-03-03 16:47:35,1
8bfbd925-daac-44e8-b569-faec869caa13,Bagas Anggraini,086472468437,Motor,B 4667 UM,-7.287441,112.791215,Surabaya Timur,surabaya,3.5,4137,2023-11-30 23:32:56,1
b01aa52f-719e-4bdd-99a6-b024279d691f,Hendra Wijaya,086652497285,Motor,B 8100 BW,-6.236256,106.930342,Jakarta Timur,jakarta,4.4,3817,2021-04-12 03:24:37,1
f72f1c0d-0fba-49f6-b924-3d81dc9aac4e,Wahyu Rahayu,081941196023,Motor,B 2995 YI,-7.261019,112.781244,Surabaya Timur,surabaya,3.7,3339,2022-11-28 00:18:57,1
bef940d6-2ed2-4101-8264-92cedfbd022a,Sari Anggraini,085937423498,Mobil,B 5857 MC,-6.224711,106.958029,Jakarta Timur,jakarta,3.6,3743,2023-05-03 01:39:47,1
e7197121-2a73-417c-b7e4-783717a3466a,Fifi Wijaya,087066983373,Motor,B 6241 QT,-6.204311,106.936145,Jakarta Timur,jakarta,4.3,1079,2021-12-09 02:14:57,1
fc9298c5-cfd9-451e-80d9-720b07ac7a53,Fifi Wijaya,084696025699,Motor,B 9548 YZ,3.590149,98.701719,Medan Timur,medan,4.0,1057,2022-01-05 00:29:20,1
a6c27e01-5335-44ff-83ae-2f4684545c14,Dewi Hidayat,087334107211,Motor,B 1570 HO,-6.106334,106.887396,Jakarta Utara,jakarta,3.7,2523,2023-09-24 23:16:07,0
7a5c68f8-8c8f-49a5-b433-280d32862629,Fifi Rahayu,082136253169,Motor,B 9002 JK,-6.113481,106.83191,Jakarta Utara,jakarta,4.1,4920,2021-02-23 16:42:16,1
22e1b392-52f2-478d-848c-94ef46eeed0e,Budi Rahayu,087196783796,Motor,B 4218 SV,-6.149298,106.753524,Jakarta Barat,jakarta,3.7,1281,2022-10-08 14:16:58,1
92e0fac5-495d-4952-97af-944c25715eb1,Dinda Setiawan,083994094834,Mobil,B 2085 UN,-7.232398,112.734116,Surabaya Pusat,surabaya,4.7,1218,2023-08-01 03:36:48,1
0dbb9e2f-3a37-44a7-a234-d2fb1692413a,Mega Firmansyah,087291870902,Motor,B 3718 GG,-7.29495,112.694152,Surabaya Barat,surabaya,4.7,971,2023-11-30 17:51:08,0
ea8fae40-cda2-4492-897b-7cc4a4b3b8ff,Fifi Kusuma,089659905491,Mobil,B 4941 VC,-6.27485,106.84704,Jakarta Selatan,jakarta,5.0,2401,2021-02-03 10:06:25,1
110ffe80-6d4e-4a5a-9f8a-7530ea254f49,Bagas Putra,081147955215,Motor,B 3630 ON,-7.256011,112.749865,Surabaya Pusat,surabaya,3.6,4014,2023-04-28 22:19:06,1
c67b2fed-887b-4d7d-a1bd-0c41cc1fa2fe,Ayu Suharto,085744436835,Motor,B 3391 YX,-6.116425,106.844539,Jakarta Utara,jakarta,3.8,708,2023-01-12 17:06:36,0
8b0a09c0-0165-429f-8e93-3a5149c6be25,Dewi Anggraini,084531491098,Mobil,B 7801 LU,-7.232969,112.733554,Surabaya Pusat,surabaya,4.1,3597,2021-02-03 10:51:54,0
1d707328-4ee1-4666-ae99-757f5965c1a3,Dewi Hidayat,083752017777,Motor,B 3279 CJ,3.554729,98.667814,Medan Kota,medan,3.8,196,2022-08-10 00:56:59,1
c01273cf-09da-49be-85bd-f0f2c10a7af6,Maya Hidayat,084653166196,Motor,B 9247 FA,-6.136221,106.818488,Jakarta Barat,jakarta,3.5,4701,2022-01-31 16:30:47,1
27e89134-e8fe-4ce3-84a9-d631bd4a58f5,Dewi Hidayat,082290053392,Motor,B 7677 KH,-7.238534,112.735071,Surabaya Pusat,surabaya,4.7,30,2023-08-29 07:10:38,1
aeb32738-f76e-4a94-8ace-5b7e42fef43b,Bagas Wati,084034567364,Motor,B 3777 YX,-6.113261,106.880805,Jakarta Utara,jakarta,4.8,3127,2022-11-17 03:16:22,0
a393033d-8332-4651-b6ab-be28e333d647,Fajar Wati,084829672858,Motor,B 2087 PB,-6.11795,106.901979,Jakarta Utara,jakarta,3.7,2605,2023-02-17 15:28:54,1
f60438c2-383c-46f4-85dc-e6d530f34b98,Arif Saputra,085428081675,Motor,B 5091 AY,-7.26517,112.737483,Surabaya Pusat,surabaya,4.3,1019,2021-11-14 00:18:45,1
60719132-8dbe-4f37-bd27-f39130fc2973,Budi Suharto,081823904151,Motor,B 2073 VE,-6.240829,106.931133,Jakarta Timur,jakarta,4.1,418,2023-07-06 22:12:23,1
c86f94e2-1242-4814-9fc5-d4f9fb6db3da,Eko Anggraini,088362328876,Mobil,B 5382 NW,3.588287,98.735364,Medan Timur,medan,4.4,3605,2023-03-06 04:45:33,1
c42c0947-1340-4e98-89de-9cf701689831,Nisa Putra,083989721394,Motor,B 5979 RH,-6.151431,106.755551,Jakarta Barat,jakarta,4.0,3628,2022-04-30 16:01:09,1
51274a79-d0a1-4713-8721-907259353088,Dinda Wijaya,087269392979,Motor,B 6239 KN,-7.278009,112.719058,Surabaya Barat,surabaya,3.9,4722,2023-12-09 18:17:09,0
a5d5eb57-af3b-4b64-a553-b1a916d355a4,Arif Hidayat,088561860700,Motor,B 2750 ZR,3.560681,98.699933,Medan Kota,medan,4.9,834,2022-05-21 07:40:05,0
e316c56a-ff69-4b69-b7bd-66766efe9ec5,Hendra Firmansyah,083062069313,Motor,B 5120 GB,-6.115339,106.890332,Jakarta Utara,jakarta,4.4,3538,2021-09-02 15:03:55,1
4312ca56-ecd6-4281-a471-f74f2693a635,Citra Saputra,085429501901,Motor,B 8380 YG,3.589451,98.700998,Medan Timur,medan,4.3,425,2021-04-15 18:40:21,0
983205e0-7fd1-4c65-98fe-5b213759060d,Citra Nugroho,082255940142,Motor,B 6596 RS,-6.210565,106.804621,Jakarta Selatan,jakarta,4.4,4984,2023-12-25 03:25:35,0
ff4f098a-3f96-4606-a2c3-bdbaad221000,Arif Hidayat,088269803753,Motor,B 9522 DR,3.59302,98.663295,Medan Kota,medan,4.7,4188,2022-07-29 07:08:11,1
a6ddeb98-7907-40c7-8344-edf81f9ef525,Ayu Wijaya,088312740912,Motor,B 8339 WG,-6.22582,106.964382,Jakarta Timur,jakarta,3.9,4234,2022-11-08 07:15:17,0
453c7cb5-a115-47f3-b17e-f763da4c0fe0,Siti Wijaya,085248494274,Motor,B 3182 VU,3.618496,98.729733,Medan Timur,medan,4.2,3022,2022-08-05 09:37:18,0
b92fcb54-6951-48e7-85ca-1b57d76c50b2,Reza Wati,081653103092,Motor,B 7799 YR,3.636606,98.707833,Medan Timur,medan,4.7,4891,2021-03-23 01:53:15,0
e3beff08-d968-468d-8c79-55a4c947aee5,Ayu Wati,087933654371,Motor,B 2676 RP,3.571943,98.70002,Medan Kota,medan,4.2,3711,2023-12-18 06:34:40,1
db7d97b9-f217-48d6-b316-4b90c43fecf3,Rizky Anggraini,081919308288,Motor,B 4616 UA,-6.129246,106.885204,Jakarta Utara,jakarta,5.0,892,2021-08-21 13:48:53,0
a5e11229-6e1f-4700-83a2-2d487bf20780,Aldi Hidayat,083216933411,Mobil,B 3479 PE,-7.237803,112.733867,Surabaya Pusat,surabaya,3.9,2291,2022-12-07 15:38:15,1
68b90781-ab4d-4232-bcda-e67fd878f73f,Dinda Suharto,085611814509,Mobil,B 2061 NE,-7.204507,112.797563,Surabaya Timur,surabaya,3.8,1280,2022-07-08 23:50:55,1
bde35cb1-0358-4c58-858e-b94a32b1aaf6,Dimas Anggraini,089069607958,Motor,B 8274 NV,3.604309,98.740373,Medan Timur,medan,4.3,918,2021-09-10 17:37:10,1
3f44db60-0569-47b1-a5aa-cad02fe192c8,Dimas Rahayu,084116528076,Motor,B 1334 PZ,-6.159031,106.765651,Jakarta Barat,jakarta,4.6,1641,2023-09-02 05:54:40,1
8a8c2245-719e-410a-9bd1-fc0ba7b9c452,Tari Santoso,087097704565,Motor,B 4516 HL,-7.292107,112.696325,Surabaya Barat,surabaya,4.4,1452,2022-03-21 07:24:04,1
77fc0067-8a01-4614-90c5-f8f9e7267019,Eko Pratama,089830185982,Motor,B 2588 XP,-6.128013,106.875415,Jakarta Utara,jakarta,3.6,3258,2021-11-09 17:39:46,0
c8a2dac3-88d3-4e7d-8974-eed1b9d5ce15,Sari Hidayat,087688904612,Motor,B 9905 GS,-7.242427,112.749068,Surabaya Pusat,surabaya,4.5,2824,2022-02-09 14:43:04,1
c7e45c68-6f2d-4d7a-bc17-706d5cbcf6ef,Wahyu Anggraini,081927937002,Motor,B 1907 ZG,3.603324,98.738619,Medan Timur,medan,4.6,2163,2021-04-07 11:15:37,1
33b9a7a6-9f9b-4b06-b113-fad498834d52,Tari Utami,082186154619,Motor,B 2866 RU,-7.253608,112.750326,Surabaya Timur,surabaya,4.2,1073,2021-12-29 04:15:13,1
688dcb64-2147-4524-98dd-ea0b2615da23,Fifi Hidayat,082735367751,Motor,B 5992 IA,3.589689,98.673003,Medan Kota,medan,4.5,4650,2023-11-05 07:39:38,1
b0ccbee6-5ec3-459e-813f-6cd3fd7c0349,Fajar Pratama,086779960993,Mobil,B 4350 VV,-7.23845,112.761725,Surabaya Timur,surabaya,3.8,4305,2021-04-02 15:33:24,1
1fb1c1ef-4edc-4597-9d3e-485e1ff7b761,Yoga Saputra,087790838547,Motor,B 9253 CJ,-7.245499,112.746625,Surabaya Pusat,surabaya,4.9,4402,2021-01-19 17:32:34,1
8fb3c13e-65e0-4eab-b20d-57a1b9a01478,Dinda Suharto,086150401025,Motor,B 3997 OG,-7.296656,112.673954,Surabaya Barat,surabaya,3.6,3410,2022-01-08 07:17:26,0
8bb40a0a-0145-4d08-99ec-dbfdbf1a3f25,Dinda Santoso,084728861742,Motor,B 5441 VR,3.551908,98.670237,Medan Barat,medan,4.8,900,2023-07-27 22:38:57,1
bfa581fd-7d02-42a9-bb4e-48e4b818bca0,Nisa Pratama,083595303697,Mobil,B 9005 YT,-7.254821,112.668908,Surabaya Barat,surabaya,4.4,1972,2023-03-04 17:45:40,1
d8e75a8a-94f6-450a-a363-ed2b9fdd5eea,Gilang Santoso,083570893145,Mobil,B 1179 IS,3.589216,98.635674,Medan Barat,medan,3.7,813,2023-02-06 01:37:44,0
60b32421-28d2-400d-a306-d47a13e96363,Lestari Nugroho,083723380650,Motor,B 9260 BX,-6.15724,106.811609,Jakarta Barat,jakarta,3.8,580,2021-12-21 06:54:25,0
13f7d84e-fa01-47ee-a43c-b095a60ce665,Bagas Suharto,081985679349,Motor,B 5083 EE,-6.189345,106.819399,Jakarta Selatan,jakarta,3.7,967,2021-12-09 10:48:34,0
3303e273-6e20-43eb-b88b-3ffe62892422,Aldi Hidayat,081373386263,Motor,B 6054 CW,-7.208866,112.753401,Surabaya Timur,surabaya,4.6,2646,2023-02-10 09:25:36,1
8d0de15e-1a3e-48b9-9475-8b58de95f566,Maya Setiawan,089495480351,Motor,B 6739 WZ,3.614681,98.68902,Medan Kota,medan,3.8,3204,2023-05-31 02:41:56,1
4b1e96dc-aeff-4476-8f71-6b5f2059336f,Maya Wati,084911253983,Motor,B 4637 JP,-7.23113,112.736986,Surabaya Pusat,surabaya,4.8,4679,2021-10-11 19:22:17,1
e0fac05b-14bd-4d7b-8aa6-56d6d5fdff82,Maya Utami,088441182105,Motor,B 6801 ML,-6.13736,106.82502,Jakarta Utara,jakarta,3.6,1848,2023-07-06 03:59:47,1
8d84654e-92dd-422a-81fc-dd12907db18b,Putri Wati,089453265147,Motor,B 4688 TM,3.591795,98.722736,Medan Timur,medan,3.7,4710,2023-07-11 16:04:05,1
6154805f-25de-4a51-98be-7db6e2e9518b,Reza Kusuma,087123210619,Motor,B 4047 EO,3.638975,98.732667,Medan Timur,medan,3.9,1331,2021-08-05 12:35:01,0
2f66736d-4971-429c-8a6f-f73673f547af,Kevin Wijaya,085885438637,Motor,B 4159 YR,-6.101959,106.831165,Jakarta Utara,jakarta,4.8,2788,2023-03-28 09:02:46,1
a7269ef6-a210-452a-9a66-d42e53828595,Eko Suharto,089253041146,Motor,B 4079 KO,3.586632,98.73891,Medan Timur,medan,4.9,4394,2021-11-25 17:29:40,1
90a7b2cf-3242-4a0b-a12f-7fcb72aee6a8,Wahyu Wati,083597459142,Motor,B 8756 TZ,3.555004,98.658153,Medan Kota,medan,4.1,2549,2022-02-11 17:51:27,1
1e4f304e-7912-4dce-942b-3afbfcdd1f80,Dinda Utami,088050650574,Motor,B 2356 KF,-6.163491,106.849215,Jakarta Pusat,jakarta,3.7,700,2021-06-21 04:50:00,1
ec5bc438-96ca-41f9-a5f6-08d80781e0e6,Indah Santoso,086159591938,Motor,B 1158 FU,-7.28475,112.67457,Surabaya Barat,surabaya,4.9,65,2021-02-09 15:02:35,0
156ed4c0-4d76-4f5f-bed7-b6c4cd17cee9,Rina Pratama,083016771438,Motor,B 3227 AU,-7.259488,112.767349,Surabaya Timur,surabaya,3.9,1223,2022-03-09 16:10:23,0
b6ab5fdf-42f6-4785-b4aa-992c0f5bb309,Putri Setiawan,085016519813,Motor,B 4295 MP,-6.172174,106.815052,Jakarta Barat,jakarta,3.7,2764,2021-02-01 02:16:13,1
66408ab1-60a1-4c0e-9c63-1d929ea2e11c,Reza Anggraini,089883833919,Mobil,B 6292 EC,-6.145389,106.846394,Jakarta Pusat,jakarta,4.8,1862,2021-09-06 14:27:25,0
7bb3717b-15d4-46dc-8204-96d30a36b501,Ayu Wijaya,081226901052,Motor,B 3206 AS,-7.286163,112.67625,Surabaya Barat,surabaya,4.2,2807,2023-03-19 05:21:42,1
99e3b48f-6bdc-4851-8181-bf52b7fdd979,Indah Saputra,087079928298,Mobil,B 3228 AQ,-7.275353,112.695075,Surabaya Barat,surabaya,4.6,1418,2022-12-12 00:36:10,0
3ad358f2-6234-4d14-8fd9-306151567838,Yoga Suharto,087612213653,Mobil,B 5344 EM,-7.25997,112.734261,Surabaya Pusat,surabaya,4.3,82,2021-07-05 09:18:17,0
87ac378f-81c0-4dbe-958d-20e8be59d327,Rizky Nugroho,085414345998,Motor,B 2247 NU,3.556672,98.683449,Medan Kota,medan,4.7,4229,2021-07-10 09:09:43,1
0ea993bf-8ef5-4ff2-aaee-b5216505e3a6,Budi Firmansyah,088766009164,Motor,B 2896 FA,3.579918,98.671773,Medan Kota,medan,3.5,4648,2021-02-02 04:05:41,1
c3a3f6b7-d003-47e7-8f05-2cc19fd1701a,Putri Nugroho,086155458537,Motor,B 5862 JB,-7.253939,112.752878,Surabaya Timur,surabaya,4.3,4567,2023-02-17 17:41:02,1
8f383a9b-315c-40f9-9924-17adb4951d9d,Indah Putra,088337509353,Motor,B 6030 CR,-6.199737,106.803004,Jakarta Selatan,jakarta,4.7,4269,2023-10-12 19:16:13,1
e169d8ea-930c-41b0-9c48-1a916431e141,Wahyu Anggraini,084666355359,Motor,B 1913 ZZ,-7.246554,112.738155,Surabaya Pusat,surabaya,4.3,1910,2023-05-06 03:37:04,1
01709db3-4ad7-4fc6-9375-e35529b3b5f3,Aldi Pratama,084736723549,Mobil,B 7892 QE,-6.263205,106.8193,Jakarta Selatan,jakarta,4.4,1061,2022-01-14 23:50:44,1
b76d2b19-485c-419e-8748-fd6ce1750830,Wahyu Kusuma,089291432137,Motor,B 6331 ZO,3.573664,98.675752,Medan Barat,medan,4.0,1958,2023-04-03 03:03:44,1
ae2757c5-0985-413f-b048-d8a8d656cd2a,Indah Suharto,081935344902,Motor,B 8724 UI,3.580491,98.674113,Medan Kota,medan,4.8,2044,2021-07-18 01:45:24,0
ebb438a4-a82b-4b19-9674-3f9b6c806291,Reza Putra,082734905809,Motor,B 3367 HV,-7.242396,112.730053,Surabaya Pusat,surabaya,4.6,77,2023-10-19 02:12:36,1
8f0319f2-3d7d-4a6f-8a87-7326fab74881,Fifi Anggraini,087017945791,Motor,B 8107 AB,-6.22747,106.867899,Jakarta Selatan,jakarta,4.5,1148,2021-04-05 23:04:59,0
9933c926-ec29-45bf-94f5-ff5083c78ef4,Dewi Saputra,081361785804,Mobil,B 8764 VU,-6.148584,106.846212,Jakarta Pusat,jakarta,4.2,1551,2021-08-05 16:50:09,1
5a4b5d46-fbd3-4a89-a577-cb120f952cdb,Dinda Pratama,086149665637,Motor,B 2905 OR,-7.290415,112.69479,Surabaya Barat,surabaya,4.0,3870,2021-09-07 06:03:02,1
8253f0c1-42da-4351-b0bd-7119096016fd,Maya Suharto,089939991062,Mobil,B 2470 OX,-7.233518,112.750965,Surabaya Timur,surabaya,3.9,1543,2021-11-26 06:31:20,1
4060e576-cc4a-4a5c-83f4-e122b3bff842,Yoga Wijaya,087617189454,Motor,B 8774 JK,-7.256419,112.794145,Surabaya Timur,surabaya,4.0,1082,2022-11-30 05:18:08,1
767aed3a-a0ff-42a8-a252-5e313f1a4c1c,Budi Suharto,082414545599,Motor,B 4284 HM,-7.250168,112.730195,Surabaya Pusat,surabaya,4.7,4609,2022-08-11 12:49:41,1
b9810af8-ec8e-41db-879e-10f8000470d9,Dinda Nugroho,089316636424,Motor,B 4815 VX,-6.161276,106.850197,Jakarta Pusat,jakarta,3.6,1844,2023-12-19 04:29:29,0
f9645340-cab7-45b4-b78c-c483b50801b1,Nisa Anggraini,085170460614,Motor,B 7937 QQ,-7.270904,112.706373,Surabaya Barat,surabaya,4.4,1219,2023-07-06 08:25:00,1
898299bf-5949-4842-b036-ab32ba3da90c,Ahmad Setiawan,085457317264,Motor,B 1184 LY,-6.138798,106.823899,Jakarta Utara,jakarta,4.2,2135,2022-03-22 00:31:47,0
a487eb9a-4b56-45f9-b02c-0825ebf2c9d7,Reza Nugroho,082274916141,Motor,B 8922 JT,-6.19041,106.796867,Jakarta Selatan,jakarta,4.8,192,2023-01-07 15:27:26,1
ea5fbf36-e4a7-486f-9b46-ed718a45bc37,Reza Nugroho,084163229862,Motor,B 4257 AW,-6.227409,106.80623,Jakarta Selatan,jakarta,4.0,3652,2022-09-16 09:18:45,1
0605e8f2-333c-4b2c-b201-2906e6ff674d,Aldi Saputra,086290980505,Motor,B 3001 RW,-7.24188,112.739241,Surabaya Pusat,surabaya,4.0,4111,2022-06-12 12:32:12,1
d9cc8cea-341f-4032-8b3b-295b3c44d48e,Eko Rahayu,083890735056,Motor,B 7388 GS,-7.28987,112.776053,Surabaya Timur,surabaya,3.9,4412,2023-02-04 07:03:15,1
40674114-b428-407f-a89c-ca26975f8565,Yoga Santoso,088536965259,Motor,B 3335 MY,-6.25457,106.848288,Jakarta Selatan,jakarta,4.7,1290,2022-09-28 18:07:33,1
849508e8-896c-45ce-9720-805724d9dd26,Rizky Wijaya,081259734660,Motor,B 6526 UQ,3.564976,98.640515,Medan Barat,medan,4.4,99,2021-04-20 00:02:54,1
f0b3f629-addc-4da9-b509-0f60239cc92b,Sari Hidayat,087352542124,Mobil,B 7621 XR,-7.275483,112.711323,Surabaya Barat,surabaya,5.0,4035,2021-10-30 09:04:33,1
69374258-04b9-4202-85b0-aeb8a651de34,Gilang Wijaya,081272293565,Motor,B 8504 QA,3.628194,98.745504,Medan Timur,medan,4.1,2890,2022-05-18 20:33:46,1
986929b9-e043-42c9-b4ce-50eb8f1eb681,Fajar Wijaya,084365315105,Motor,B 3527 BE,-6.219664,106.884758,Jakarta Timur,jakarta,3.5,3663,2022-09-05 21:16:11,1
b0bd5b53-e792-42e3-b1cf-3098e43d35ad,Kevin Rahayu,087620822209,Motor,B 5905 HY,3.610142,98.719735,Medan Timur,medan,3.9,2230,2022-12-22 02:08:31,0
3f00fdaf-b788-4592-a193-8ac5f59a658c,Wahyu Anggraini,088261646589,Mobil,B 5059 OR,-7.26266,112.666232,Surabaya Barat,surabaya,4.9,3511,2021-07-05 22:22:48,1
621b3fdb-5ad5-4471-91da-713e5a0445be,Dinda Nugroho,086274682537,Motor,B 1934 IT,-6.132062,106.81879,Jakarta Barat,jakarta,4.0,259,2022-09-07 23:46:28,1
20fda218-66cc-48a6-a51a-27cd4a14d0dd,Lestari Saputra,082521656963,Motor,B 7112 NK,3.602455,98.692264,Medan Kota,medan,5.0,1463,2023-08-16 12:41:15,1
fc9b8392-317d-4b19-a0d7-479c5757eb59,Aldi Kusuma,084383671867,Motor,B 5362 NP,3.61886,98.731511,Medan Timur,medan,4.2,4995,2021-12-06 20:09:37,1
8cb6dc31-5ae9-46fc-b6f1-f8e5e533df51,Siti Kusuma,089072249366,Mobil,B 3569 VM,-7.246677,112.745753,Surabaya Pusat,surabaya,3.8,896,2022-02-15 11:01:59,1
4f9b8a70-d1a3-404f-b533-79892e3120e9,Wahyu Wati,088770496402,Motor,B 2333 JC,-6.142829,106.742724,Jakarta Barat,jakarta,3.8,557,2021-04-25 23:11:26,1
fca59f60-9b0e-4bed-adc7-4bc44d4cdea8,Nisa Setiawan,085033475003,Motor,B 8451 YU,3.597456,98.641506,Medan Barat,medan,4.9,3812,2022-10-08 16:35:19,1
6f51d7ac-0be8-4724-882d-448bf6428a27,Yoga Firmansyah,087135617451,Motor,B 1159 AQ,-6.162887,106.798739,Jakarta Barat,jakarta,3.7,518,2022-07-08 18:18:39,1
9928b2c1-89e2-48da-8ca6-a27272089106,Dinda Hidayat,086274672590,Mobil,B 2661 TR,-6.253548,106.843345,Jakarta Selatan,jakarta,4.1,3133,2022-03-26 22:48:30,1
c3c7dbe9-bc6d-4597-ac50-4376a7709e8f,Fajar Wijaya,081568916617,Motor,B 8175 MA,-6.228311,106.826463,Jakarta Selatan,jakarta,5.0,716,2021-03-04 03:17:46,0
d9cda3f1-6655-45ac-b151-1dcfe1d3db6c,Ayu Utami,086245399577,Motor,B 5425 JC,3.559531,98.648374,Medan Barat,medan,3.7,3035,2023-01-16 10:25:12,1
1119365c-d5b0-4c73-9d9a-d8c95da44e38,Fifi Wati,089736475408,Motor,B 3686 LC,-6.17464,106.876282,Jakarta Timur,jakarta,3.7,4355,2022-12-06 21:00:20,1
2c8d0a2a-f3e1-4b10-9e2c-e40c6c1e733d,Tari Anggraini,081711407112,Motor,B 8776 LV,3.596662,98.650011,Medan Barat,medan,4.3,364,2021-06-04 00:29:14,1
d01bb757-50fe-40a8-917a-4755e124bc2b,Siti Pratama,084523387697,Motor,B 7420 GR,-7.298068,112.77809,Surabaya Timur,surabaya,4.1,298,2021-05-22 10:40:55,1
b89002b7-2193-4750-a753-7c3caa49da63,Dimas Putra,089695190598,Motor,B 8355 RA,-7.267854,112.73743,Surabaya Pusat,surabaya,3.6,2687,2022-09-27 15:56:08,1
9d932a97-a352-4504-8e87-188924b327e8,Lestari Putra,084621483806,Mobil,B 3298 RJ,-7.259216,112.789318,Surabaya Timur,surabaya,4.7,4915,2022-02-11 07:51:40,1
2c0ff50f-f9be-45db-8c61-65ad4948d67f,Mega Nugroho,088432324890,Motor,B 3752 VX,3.569453,98.631449,Medan Barat,medan,3.6,4452,2021-11-04 05:06:32,1
3be1097a-e6a7-4233-9bf1-6170e5857dc8,Mega Pratama,087791345867,Motor,B 4106 KM,3.585215,98.674412,Medan Barat,medan,3.7,2200,2021-06-24 20:13:11,1
b1336e6e-7aea-4de9-815d-29d8840522b8,Ayu Wijaya,087997287974,Motor,B 8584 QM,-6.159633,106.931045,Jakarta Timur,jakarta,4.4,4591,2023-09-30 10:21:32,1
755ea202-e64c-4861-b290-f8992e11424c,Aldi Saputra,089870976063,Motor,B 8621 WT,3.61282,98.742921,Medan Timur,medan,4.6,2979,2022-08-18 23:56:23,1
5c409451-c5c4-4197-8bc2-cd3061d24c2c,Lestari Hidayat,086556824996,Motor,B 2940 MG,-7.267764,112.784403,Surabaya Timur,surabaya,5.0,2501,2023-03-28 15:45:41,0
a05feb3a-cea7-4762-92d2-c7e238d5afcb,Indah Wati,087613195539,Motor,B 1842 KD,-7.262558,112.719957,Surabaya Barat,surabaya,4.5,4152,2022-03-19 00:34:50,1
95a90e70-1853-45f6-9651-9d6443231b4e,Dewi Anggraini,081031067333,Motor,B 1827 LR,-7.219557,112.796151,Surabaya Timur,surabaya,3.9,4746,2022-05-17 21:43:37,0
d43c67f4-b13c-435d-86ba-a490cc813a0f,Mega Kusuma,085833227179,Mobil,B 5002 VR,-7.297856,112.776645,Surabaya Timur,surabaya,3.8,3257,2021-01-26 05:09:01,0
399f70bf-4e73-42eb-9a76-3c89fdcd119c,Mega Santoso,088920806662,Mobil,B 3748 MD,-7.254413,112.769897,Surabaya Timur,surabaya,3.6,4423,2021-04-05 23:41:19,1
8a4ed2de-315d-4138-944f-d2256d518020,Yoga Utami,084034252673,Motor,B 3268 XG,3.584206,98.718814,Medan Timur,medan,4.1,1977,2022-09-14 00:47:28,1
26a79746-5993-4839-842a-c938d8254dac,Ahmad Putra,088273969578,Motor,B 2954 CC,-7.26393,112.717415,Surabaya Barat,surabaya,4.7,195,2021-08-09 03:40:31,0
4c1968e3-dd70-4282-91ff-b6faf90f1cbc,Ahmad Nugroho,084799780305,Motor,B 4648 RS,-6.268645,106.809366,Jakarta Selatan,jakarta,3.7,3698,2022-01-12 19:23:17,1
024ec49e-5422-454c-a202-d1d401dd4d3f,Aldi Pratama,085049008616,Mobil,B 4034 HZ,3.592427,98.673484,Medan Kota,medan,3.7,3527,2021-08-05 01:28:13,1
6eb569ec-8308-48d9-b81f-623897592a37,Maya Hidayat,085839925692,Motor,B 8347 IE,-6.110901,106.919036,Jakarta Utara,jakarta,4.5,3476,2021-11-13 09:20:29,1
7cc235c9-cc82-4f22-9399-5491975a3694,Bagas Saputra,081311247658,Motor,B 4645 UP,-7.237587,112.75872,Surabaya Timur,surabaya,3.6,3369,2021-02-03 03:50:21,1
fe846e1b-468d-4aa5-8166-c95681ebedd0,Wahyu Wati,084162286079,Motor,B 3621 HS,-6.176682,106.793544,Jakarta Barat,jakarta,3.8,4494,2021-05-22 06:17:43,1
b1795030-2f78-473e-b3c2-081666a1b624,Yoga Saputra,086657147284,Motor,B 6514 FH,3.599578,98.732687,Medan Timur,medan,4.7,2806,2023-05-22 05:25:23,0
6ed1a3e9-a77d-469c-8cce-026743ad8e51,Reza Hidayat,086820169938,Motor,B 3321 EV,-6.178947,106.803318,Jakarta Barat,jakarta,4.6,3700,2023-12-30 17:04:47,1
d785797f-7c88-4b66-ae8b-a56f8664bb9e,Putri Saputra,086051917206,Motor,B 4726 TA,-7.234643,112.732092,Surabaya Pusat,surabaya,4.6,2705,2023-11-17 01:06:09,1
cd9ce95e-0fdf-47b1-8176-d0e140ec51d9,Gilang Saputra,083427931732,Mobil,B 6911 BT,-6.104281,106.87605,Jakarta Utara,jakarta,3.5,1438,2023-03-31 22:21:59,1
aefe507a-a9ef-4e00-874c-0a40ef54d660,Ayu Firmansyah,085950219484,Motor,B 2021 HV,-7.267394,112.687329,Surabaya Barat,surabaya,3.6,478,2022-08-25 21:13:48,0
169ff846-fb22-4bd3-b822-668a38645e63,Fajar Suharto,086285019865,Motor,B 7253 UZ,-7.293205,112.79385,Surabaya Timur,surabaya,3.5,2850,2022-09-07 09:53:08,1
5b086e6e-f63a-434f-b8eb-df607c325f72,Putri Nugroho,082765378558,Mobil,B 3946 GJ,-6.151457,106.844648,Jakarta Pusat,jakarta,4.8,3566,2023-04-18 23:40:01,0
fb268630-2ace-4bbc-b981-4640e44fb0b1,Indah Firmansyah,083583559233,Mobil,B 7381 RT,3.583698,98.711339,Medan Kota,medan,4.5,463,2022-11-22 18:37:32,1
e7babf37-eb03-4037-be2f-744a03e5a864,Sari Saputra,081278502989,Motor,B 2780 MT,-7.267662,112.65876,Surabaya Barat,surabaya,4.3,1643,2023-02-14 05:43:02,1
bab5ddfb-71aa-40df-bdbd-d3b952357459,Budi Rahayu,086264515780,Motor,B 8478 HL,-6.173311,106.790799,Jakarta Barat,jakarta,4.7,1417,2022-09-08 03:50:23,0
5592fdd8-4f74-4830-87ed-c5ba6a798b6e,Reza Wati,089682357425,Motor,B 7131 HU,3.567627,98.638823,Medan Barat,medan,5.0,324,2021-10-30 04:55:25,0
839b2ccb-09b3-4923-b2d1-60df52c6d264,Hendra Hidayat,089012715153,Motor,B 2786 AA,-6.146536,106.864613,Jakarta Pusat,jakarta,3.6,4629,2023-08-25 11:58:33,1
2a0675a8-95ab-4eeb-af47-ce95b81f4d2d,Maya Nugroho,083163052685,Motor,B 7856 EO,-6.153147,106.859828,Jakarta Pusat,jakarta,3.7,3742,2022-06-30 06:31:44,1
210c59eb-135e-4b0b-8f97-edce13aa44f2,Maya Wati,085245272566,Motor,B 7049 PX,-6.15132,106.813786,Jakarta Barat,jakarta,3.7,4754,2023-02-10 08:33:34,1
5b94aa8c-ac54-48fa-a629-15ab98d4f298,Eko Firmansyah,085182588707,Motor,B 6175 TP,-6.140252,106.819437,Jakarta Barat,jakarta,4.6,3520,2022-05-22 09:50:58,1
154799e8-e643-4808-9857-65638941453c,Mega Hidayat,083724780486,Mobil,B 1484 ZG,-7.270356,112.784063,Surabaya Timur,surabaya,3.8,4602,2023-10-25 19:45:44,1
524439f0-5e6b-498e-9551-831d57ba7ef8,Gilang Utami,084824107401,Mobil,B 3070 NY,-7.20409,112.774175,Surabaya Timur,surabaya,3.8,2928,2021-07-27 11:33:27,1
6bd64a90-fc6d-441d-bc05-839f63d7178f,Tari Pratama,082251877637,Motor,B 1624 VE,-7.242838,112.740586,Surabaya Pusat,surabaya,4.0,334,2021-01-18 23:51:43,1
0afc7926-a00a-4291-b3a5-3007fe048004,Putri Kusuma,089565626320,Motor,B 9884 PR,-7.215194,112.781189,Surabaya Timur,surabaya,3.8,2598,2022-01-03 09:06:30,1
af695c92-3691-43be-ac76-b6207fe5dfbe,Kevin Saputra,089477691849,Motor,B 1605 YN,3.582844,98.659327,Medan Barat,medan,3.6,561,2022-01-23 03:16:36,1
5d2e24d6-b1de-4053-97ac-c30d88bfc1e2,Bagas Setiawan,089481778448,Motor,B 8119 UF,-7.23242,112.739187,Surabaya Pusat,surabaya,4.1,3307,2023-08-08 18:23:17,0
906c8f15-ac2a-423b-93a8-9ea39958e368,Indah Wati,083981155439,Motor,B 5989 JM,3.561215,98.66655,Medan Kota,medan,3.6,3782,2023-06-02 05:23:44,1
c0fe346d-7555-4e01-a5df-1f5bef0aff93,Kevin Wati,081821175677,Mobil,B 1171 JT,3.630888,98.74615,Medan Timur,medan,4.9,2544,2023-10-07 20:42:15,1
b99f7911-5ad3-4162-a266-d3afc688482a,Dimas Wati,081999249401,Motor,B 2213 HE,3.577031,98.658515,Medan Kota,medan,3.6,4324,2021-06-20 12:24:49,0
77504fcc-f327-4dc4-83b6-04e33b20c56a,Indah Rahayu,086024553443,Motor,B 1956 PE,3.571121,98.690826,Medan Kota,medan,4.1,3830,2022-08-15 10:45:17,1
713159cc-0778-41f6-8390-e2e0cc1ffe99,Maya Saputra,081796006890,Mobil,B 5717 BB,-6.162268,106.902023,Jakarta Timur,jakarta,4.0,2368,2022-04-03 05:41:54,1
2d869f17-eb4f-4389-9ab6-7d97c44d7929,Dinda Putra,082793491867,Motor,B 3619 RT,-6.229738,106.803707,Jakarta Selatan,jakarta,4.3,912,2022-10-19 16:37:29,0
3e038f38-68cf-4f92-94ef-8c657f68779e,Bagas Anggraini,084130790413,Motor,B 6269 PJ,3.613299,98.733537,Medan Timur,medan,4.5,3006,2023-08-24 23:58:24,1
8e12a837-a239-41c7-b1ee-afd57c696f76,Yoga Putra,083540009740,Motor,B 7015 ZR,-6.188493,106.818135,Jakarta Selatan,jakarta,3.8,1707,2023-05-02 18:20:39,1
23f8b271-c8eb-4eb6-a74a-cdc0d26b1eaf,Aldi Anggraini,086656241281,Mobil,B 3227 YT,-7.294411,112.691373,Surabaya Barat,surabaya,4.4,1498,2022-04-27 11:34:43,0
8e38b6b3-5adf-4185-b20e-12efe3e83cec,Dinda Firmansyah,088369392707,Motor,B 2192 GC,3.582242,98.706811,Medan Timur,medan,4.0,2291,2022-10-12 18:24:07,1
13303577-b62d-41ea-990a-3595417596c3,Dewi Pratama,089768231282,Motor,B 8099 ET,3.582768,98.677763,Medan Barat,medan,3.9,4844,2022-03-05 03:29:00,1
0ce24c58-18ab-47b3-afcd-1aba03dd7916,Eko Suharto,085553282349,Mobil,B 7386 TS,3.64654,98.739402,Medan Timur,medan,4.4,4101,2022-05-01 12:31:39,1
5017bbb2-1d87-4c3e-b936-efbeea0f5ff8,Ayu Firmansyah,083539864339,Mobil,B 4432 TS,-6.128592,106.879212,Jakarta Utara,jakarta,4.7,3545,2021-02-16 19:50:28,1
6a0259da-6519-4c87-88f2-fe5267d5ee45,Lestari Anggraini,088386977621,Mobil,B 9121 VC,3.574631,98.648223,Medan Barat,medan,4.4,2248,2022-05-26 00:02:44,1
0d56ce58-5ebf-4f15-9c46-cabe477df98d,Reza Utami,086870894388,Motor,B 2380 QJ,-7.260736,112.763171,Surabaya Timur,surabaya,3.7,1176,2022-08-14 23:33:27,1
ed9f214c-62d4-49bd-94b1-ca25b3a4e613,Mega Kusuma,088639666461,Motor,B 3209 OM,-6.137522,106.75976,Jakarta Barat,jakarta,4.4,3988,2021-10-23 21:34:21,1
e6431f32-9ad4-4862-9751-4808da9f5682,Rizky Rahayu,089639687893,Motor,B 8135 CM,3.559028,98.655505,Medan Barat,medan,4.4,3849,2022-02-05 07:02:31,1
db45597e-9e94-4978-b3c6-6a9a60f5b756,Rina Kusuma,086789674927,Motor,B 9474 ZA,-7.239009,112.767261,Surabaya Timur,surabaya,4.0,2172,2023-02-03 08:05:50,1
aeb09b00-ccc8-4fed-a5fa-dba5087b49ee,Sari Setiawan,087241752822,Motor,B 3302 ZS,-6.157363,106.962633,Jakarta Timur,jakarta,4.1,1068,2021-02-08 16:14:08,1
d98e4dff-8d55-4a71-8bfc-2491852a5d4a,Aldi Wati,084316431908,Mobil,B 7686 EY,-7.267625,112.666279,Surabaya Barat,surabaya,4.3,1328,2022-11-20 15:00:47,1
f0f42a69-e8d0-4baf-8543-e9bf621c3763,Rina Saputra,086242845337,Motor,B 1321 XS,-7.240138,112.741155,Surabaya Pusat,surabaya,4.1,4483,2022-12-09 22:56:07,1
a87eb7f4-2867-47f8-8f8f-10130c97773b,Maya Suharto,087881127293,Motor,B 7806 QE,3.552326,98.654644,Medan Barat,medan,4.9,2294,2021-12-02 09:54:24,1
197873b0-a178-4983-8562-4ad08e251c74,Fajar Wijaya,086872254412,Motor,B 3757 VP,-7.2646,112.739234,Surabaya Pusat,surabaya,4.3,2179,2021-10-22 02:25:10,0
0fd4f91b-19a3-4772-98f0-877d060e7042,Eko Nugroho,085477259930,Motor,B 5469 AW,-7.244154,112.758002,Surabaya Timur,surabaya,4.1,479,2022-05-31 00:06:57,1
ad9cc36c-16b4-4a2a-9542-7ba127a674f0,Nisa Saputra,084869216356,Motor,B 7124 TU,-7.236173,112.760719,Surabaya Timur,surabaya,3.9,4558,2022-12-26 05:14:04,1
c0f39c53-2437-43da-939d-73e34e990907,Hendra Pratama,083382153050,Motor,B 6650 MR,-6.178205,106.791608,Jakarta Barat,jakarta,4.3,4711,2022-01-01 08:12:59,1
ad2394fd-c5f4-4e90-b4e8-a572480cc74c,Ahmad Wati,081483636235,Motor,B 3343 RD,-6.137391,106.91087,Jakarta Utara,jakarta,4.3,469,2021-11-30 07:39:19,1
ea817b15-8308-4d0c-b6f9-4d4cba620f48,Hendra Firmansyah,088843266766,Motor,B 7291 OY,3.62888,98.722873,Medan Timur,medan,4.3,2935,2023-03-10 15:57:36,1
e14735ba-ea72-4d58-b2ba-30cc90342aff,Nisa Nugroho,089180457004,Motor,B 4432 QV,3.579058,98.663632,Medan Barat,medan,4.7,1163,2021-12-27 23:13:55,1
b4332e02-f7d1-4a9a-a582-f2ae459cb979,Wahyu Nugroho,086047734358,Mobil,B 6167 VQ,-7.29009,112.770371,Surabaya Timur,surabaya,4.6,2052,2022-01-14 08:22:16,1
8af63404-cb0d-4d50-b8a6-f70103779496,Reza Saputra,083178475147,Motor,B 3964 OA,3.562311,98.655783,Medan Barat,medan,5.0,4765,2023-01-04 10:43:54,0
bccd8375-9e2f-4c74-a178-5cb145b63a04,Putri Kusuma,088477876466,Motor,B 1990 OO,3.561809,98.656624,Medan Barat,medan,3.6,1156,2021-11-26 17:30:59,0
997cf586-310b-429c-9730-a6c2448d3d04,Rizky Wati,086441061128,Mobil,B 5004 EX,-7.243115,112.744403,Surabaya Pusat,surabaya,3.5,2831,2022-04-10 18:50:34,0
32666e5e-9f09-48df-900b-86c6b6a57b21,Tari Wati,082133585198,Motor,B 9791 UU,-6.272727,106.848506,Jakarta Selatan,jakarta,4.1,3667,2021-10-22 00:50:13,1
e24aa207-1667-43a1-9f05-4b0cd98fb89f,Hendra Firmansyah,088344352873,Motor,B 7804 XV,-7.273984,112.756034,Surabaya Timur,surabaya,4.0,858,2021-07-03 11:14:43,1
0e80f17b-2c0a-4086-a8a2-4590b8ee3c02,Rina Firmansyah,083722368066,Motor,B 3726 DV,-7.294446,112.758854,Surabaya Timur,surabaya,4.6,4482,2021-01-21 07:47:29,0
9c1e9be0-ba00-4a67-93b5-6d233593bf27,Siti Wijaya,088049934591,Motor,B 6317 XX,-6.248952,106.838911,Jakarta Selatan,jakarta,4.4,1849,2021-01-19 16:07:12,1
e30ffd46-c8c7-41f8-a63e-f2c9b67bc63f,Fajar Setiawan,081623878871,Mobil,B 6542 RJ,3.573542,98.654135,Medan Barat,medan,4.8,3438,2021-10-29 18:56:18,1
f49c5ac8-627c-452b-8bd8-3023b99355e4,Budi Anggraini,085640367812,Mobil,B 1012 MK,-7.258305,112.670173,Surabaya Barat,surabaya,4.1,831,2022-05-14 11:37:01,1
3dc8f542-34f4-47e0-a49a-1e169dcf7b62,Arif Rahayu,089731159461,Motor,B 8376 WP,-7.236781,112.740412,Surabaya Pusat,surabaya,3.8,4647,2022-11-10 07:39:17,1
a622822a-8183-4d03-9e72-eb530df676c3,Putri Anggraini,086274510689,Motor,B 9837 JI,-6.132569,106.892251,Jakarta Utara,jakarta,4.1,3615,2021-10-22 13:40:08,1
edd8bc75-df5b-4254-a5ae-38967f0b8e62,Aldi Anggraini,089594592338,Mobil,B 8309 UI,3.56216,98.662951,Medan Barat,medan,4.4,115,2021-06-04 14:44:34,1
53773288-eee6-4662-be7a-7450756a55da,Aldi Utami,088659079312,Motor,B 6642 SM,3.641077,98.721326,Medan Timur,medan,3.5,726,2021-08-15 10:16:52,1
f952ab07-24d6-446a-9917-82cbbe5aeb06,Aldi Rahayu,089930743373,Motor,B 6686 MF,-6.100333,106.887111,Jakarta Utara,jakarta,3.8,2449,2022-12-07 09:46:39,1
c1450d81-bbd2-4e41-bc4a-24fb4a229596,Citra Setiawan,087719440089,Motor,B 4920 OD,-7.2625,112.742745,Surabaya Pusat,surabaya,3.6,2357,2022-05-08 11:21:50,1
35883fb6-221d-493a-bb91-02a17640c4a1,Reza Santoso,086852331086,Motor,B 8531 WY,3.591424,98.702108,Medan Kota,medan,4.4,2763,2021-08-14 02:50:36,1
7d2c9a8e-28c8-431a-aa91-5573f2922b88,Dinda Nugroho,084877227900,Motor,B 9381 SG,-6.199357,106.9154,Jakarta Timur,jakarta,3.5,559,2022-09-12 13:10:14,1
c5d06144-af12-4614-b9f9-983a48d233da,Nisa Setiawan,084426831398,Mobil,B 4955 GN,-7.201032,112.790268,Surabaya Timur,surabaya,3.6,4813,2021-05-28 01:08:57,1
769a3489-5b27-4292-9fc2-3b0f8937347b,Maya Hidayat,085671375161,Motor,B 8624 ER,3.594825,98.674707,Medan Barat,medan,4.2,4533,2021-06-24 14:37:27,1
3dad8b03-1d82-45e9-b03e-d9d27ce7e484,Aldi Kusuma,089641836046,Motor,B 3585 MY,-7.241049,112.747107,Surabaya Pusat,surabaya,4.2,4878,2022-03-26 13:51:56,0
75c1f635-d2ec-4e91-989d-aebc0d6706bd,Ahmad Saputra,086247373806,Motor,B 9502 DI,-6.122967,106.887828,Jakarta Utara,jakarta,4.9,435,2022-02-02 00:45:04,1
f2c408e0-c588-4abf-83b2-621e6bc593a0,Reza Pratama,082829746893,Motor,B 3741 TO,-6.113564,106.84222,Jakarta Utara,jakarta,4.4,4193,2021-01-08 01:58:17,1
7e6d77f9-0a77-45f8-8b6a-b25b295d904c,Siti Utami,086575770907,Motor,B 9818 XN,-6.155711,106.799802,Jakarta Barat,jakarta,4.1,2835,2021-04-15 21:05:19,0
f4c07580-5020-4aba-9873-2c1c1ca2faac,Kevin Santoso,084193757012,Motor,B 8880 JT,3.581053,98.677155,Medan Kota,medan,4.9,713,2022-04-07 05:43:20,1
293ca9d8-c8cd-4189-bcb2-8e9e3a5a1cc0,Dimas Wati,081056007679,Motor,B 1227 RU,-7.245321,112.738848,Surabaya Pusat,surabaya,3.8,3088,2021-02-27 10:47:22,1
1b55afce-5a52-4bec-a9b6-068098be29b8,Indah Wijaya,085420165607,Motor,B 9844 VR,3.599147,98.67169,Medan Barat,medan,4.3,1517,2023-01-29 03:24:20,1
7c7bdb07-4eaf-474b-8392-0b0c42e69db5,Maya Setiawan,088818639382,Motor,B 7170 BJ,-6.205868,106.803578,Jakarta Selatan,jakarta,4.8,3689,2022-02-20 21:29:26,1
5accfdf7-2ba6-4cb1-9430-538ebe84a242,Indah Anggraini,084186464363,Motor,B 1291 RC,3.582243,98.651815,Medan Barat,medan,4.4,1077,2023-02-11 17:43:26,1
90f6b332-f17f-4c10-80dc-df96c65e3501,Dinda Nugroho,085789572046,Motor,B 8401 TF,-7.264556,112.714102,Surabaya Barat,surabaya,4.8,3813,2023-11-08 04:20:45,1
a93d883e-7756-4c5c-a754-41400ede4782,Kevin Rahayu,088852233469,Mobil,B 7273 GH,-6.133967,106.885308,Jakarta Utara,jakarta,4.2,594,2023-07-23 01:52:18,1
19b63a74-7abd-4eaf-b98b-e91980e5e00f,Sari Nugroho,082465876327,Motor,B 1866 QZ,3.610709,98.652149,Medan Kota,medan,5.0,3841,2021-03-18 21:57:57,1
a08caa0d-a1f0-45c0-83ed-ed975e40450c,Rina Suharto,082983962111,Motor,B 8012 SI,-7.280228,112.665186,Surabaya Barat,surabaya,4.0,4465,2022-02-07 04:24:41,1
3639c148-af20-4d76-a3cf-13b971d9c123,Hendra Nugroho,082747356146,Motor,B 8174 LY,3.558112,98.661652,Medan Barat,medan,3.8,4553,2022-11-27 11:30:10,1
308b205c-af51-475b-be6f-b413ce724fd0,Bagas Kusuma,088832537709,Motor,B 8916 TZ,-7.266407,112.747773,Surabaya Pusat,surabaya,3.8,4701,2023-11-14 18:57:37,0
cde6e0c5-da71-4233-8c36-fbf24a591a30,Aldi Hidayat,081326197387,Motor,B 7586 LK,-7.251434,112.672519,Surabaya Barat,surabaya,4.3,3276,2022-07-04 16:27:56,1
716923f3-072c-4bae-9890-085c5cbb8a0f,Dimas Rahayu,085784154783,Motor,B 9910 VB,-6.131232,106.74233,Jakarta Barat,jakarta,4.5,429,2022-10-09 05:37:26,0
923f82f4-05c3-4ada-83a7-467e3c4fa9d9,Arif Nugroho,087198373262,Motor,B 2719 GN,-7.25578,112.746976,Surabaya Pusat,surabaya,3.5,4413,2022-03-01 16:21:49,1
a16bc7b2-64ba-4029-947a-9273b64eeac4,Nisa Pratama,088790881534,Motor,B 9094 QE,-7.233316,112.748087,Surabaya Pusat,surabaya,4.7,2007,2022-10-18 09:16:55,1
6c67fb78-8e51-445a-9ecd-ebe04f61322e,Dinda Firmansyah,087770788212,Motor,B 2062 SD,-6.112829,106.892536,Jakarta Utara,jakarta,4.7,1631,2023-11-07 13:00:59,1
704c17cf-7fd3-4ef0-a746-fe2e1d5460a7,Nisa Rahayu,082166236096,Motor,B 1511 IP,-7.224023,112.794268,Surabaya Timur,surabaya,3.8,2685,2021-11-06 06:28:45,1
ed89cc10-08ae-422b-8899-141809687c99,Dimas Setiawan,086720793266,Mobil,B 1960 FA,3.582233,98.730642,Medan Timur,medan,3.6,2888,2022-05-24 21:55:18,1
4a87fb85-e0e1-4276-a8af-3591d47ab797,Bagas Utami,081117645681,Motor,B 4067 ST,-6.148763,106.842556,Jakarta Pusat,jakarta,4.6,1193,2021-12-16 08:12:34,1
da7fb6c0-008b-43da-9dab-51c8524d3846,Fajar Firmansyah,083544585368,Motor,B 4451 FU,3.583193,98.673986,Medan Barat,medan,4.7,1427,2023-11-18 21:30:15,1
dce1b753-adc6-4c39-bc61-e1ef70735c30,Hendra Saputra,083543037641,Motor,B 4572 MU,-6.170063,106.845768,Jakarta Pusat,jakarta,3.6,1116,2021-08-05 22:50:29,0
087abfca-101e-4a5e-bb51-35d2a23e8e1f,Gilang Firmansyah,089674898669,Motor,B 5884 PU,3.620575,98.744542,Medan Timur,medan,4.8,107,2023-07-29 23:04:51,1
8ca954f8-f3c6-40d1-a4c5-863be76c84f8,Hendra Anggraini,088111789993,Mobil,B 7868 MP,-6.145609,106.842244,Jakarta Pusat,jakarta,4.3,2791,2021-11-17 03:27:04,1
56ad5962-2590-491a-a2fd-cd9017182123,Mega Firmansyah,086878765107,Motor,B 4589 OB,3.625545,98.736456,Medan Timur,medan,4.7,612,2023-02-28 06:53:46,1
2f284c89-4bd4-4a78-ba2b-50b7a5d90615,Ahmad Pratama,086038529601,Mobil,B 6344 AN,-6.205847,106.821898,Jakarta Selatan,jakarta,3.5,502,2021-12-09 20:00:43,1
4cf0a2cc-8c79-42a2-af54-95668187c27a,Citra Wijaya,086041717341,Mobil,B 5712 LV,-7.295124,112.715954,Surabaya Barat,surabaya,4.9,1934,2022-10-03 19:16:50,1
19e88f4c-2da7-4ce3-bce9-eee944bb817f,Hendra Kusuma,086510500116,Motor,B 8217 HF,3.550898,98.668717,Medan Kota,medan,4.9,3298,2023-08-17 10:06:13,1
6926856b-5ee6-4d58-8aca-03f702c077db,Eko Kusuma,088750591014,Motor,B 1266 SW,3.594564,98.682479,Medan Kota,medan,4.2,675,2021-04-19 08:13:16,1
e014a425-e420-493c-98f6-d0e258f38ab0,Wahyu Suharto,081187143581,Mobil,B 6766 NO,-6.130517,106.883038,Jakarta Utara,jakarta,4.8,4577,2023-06-02 18:00:35,1
e5b23093-bb73-4625-952f-1ecdefef0d3d,Fifi Firmansyah,087798493930,Motor,B 8236 CG,-7.286269,112.701822,Surabaya Barat,surabaya,4.8,318,2021-12-12 04:30:26,1
6410ae9a-3332-4342-9984-cdee1385bf96,Rina Anggraini,083124405463,Motor,B 9926 JX,-7.238611,112.735837,Surabaya Pusat,surabaya,3.8,1056,2021-05-26 00:15:36,1
0c7fb1e2-23c4-4ee6-8462-060254f5c652,Putri Anggraini,083193388962,Motor,B 7150 AG,-6.144059,106.852326,Jakarta Pusat,jakarta,3.5,1067,2023-07-16 05:11:17,1
991a0b54-bb09-4406-94f7-a8dd6e952d56,Dinda Firmansyah,083313541996,Motor,B 1391 YO,-7.246746,112.747416,Surabaya Pusat,surabaya,4.0,421,2021-01-31 20:05:46,1
7f82a3a4-3c10-4a27-9ae3-abf797f64322,Bagas Hidayat,081068404729,Motor,B 4650 UZ,3.569642,98.640595,Medan Barat,medan,3.7,1990,2023-03-30 08:07:27,0
30c64e0a-7f16-4193-bb52-3853ac724bdd,Budi Rahayu,083957265606,Mobil,B 3164 PN,3.56155,98.672569,Medan Barat,medan,3.9,296,2023-07-01 09:42:44,0
e57dbcb2-39ec-4718-aa3f-f1c8a7349139,Dimas Kusuma,086898164261,Motor,B 8207 MP,3.615119,98.69442,Medan Kota,medan,5.0,2129,2023-05-04 08:55:55,1
45e17467-40a1-447c-bcb9-929cca488779,Budi Pratama,087358644445,Mobil,B 6080 CZ,-6.136215,106.834627,Jakarta Utara,jakarta,4.0,582,2022-04-07 19:50:24,1
2e6fc4cd-ffde-472d-b3af-32c176da7ee1,Wahyu Setiawan,084931710622,Motor,B 4947 WY,-6.22107,106.834874,Jakarta Selatan,jakarta,3.8,3794,2021-06-10 11:34:32,1
319771cc-63ed-4926-8b2f-cb25e0293a56,Sari Anggraini,089081545516,Motor,B 7743 VH,-6.104551,106.821189,Jakarta Utara,jakarta,4.3,1509,2023-10-21 07:12:50,1
adf27d40-3b48-4853-9850-2f0296da66b6,Gilang Suharto,089222166703,Mobil,B 5373 RW,-6.169681,106.822554,Jakarta Pusat,jakarta,4.0,771,2022-07-26 11:56:12,1
13efc8da-3e51-4c31-9e32-c7562ed06be6,Gilang Santoso,083428176707,Motor,B 9482 OA,-7.286916,112.71427,Surabaya Barat,surabaya,3.9,3017,2021-03-05 11:53:42,1
9c0f4c47-b98f-443b-943f-fab2e9e7c0cf,Rizky Santoso,082719274720,Mobil,B 9858 WB,-6.213252,106.819019,Jakarta Selatan,jakarta,4.9,4530,2021-04-18 20:28:37,1
a93f5b37-4007-40c0-a21d-c5bc70ed1b88,Aldi Wati,082829169490,Motor,B 5704 NY,3.607269,98.734237,Medan Timur,medan,3.8,3522,2022-06-03 03:59:32,1
40bee9ee-989d-457a-8ba6-f2f09d1cd3b7,Kevin Kusuma,083955367014,Motor,B 2376 PE,3.575545,98.684373,Medan Kota,medan,4.2,4511,2022-04-06 15:43:29,0
24a4b4ae-d573-49c8-8e79-a581190227bf,Mega Utami,088645623371,Motor,B 7191 DO,-7.281433,112.752145,Surabaya Timur,surabaya,3.8,1865,2022-09-16 15:02:56,1
678b3e75-15ed-4341-b42d-7dedf09f4eed,Dinda Anggraini,089710363090,Mobil,B 9016 JA,3.615026,98.747212,Medan Timur,medan,4.4,529,2023-11-28 22:51:32,1
cadc2441-9cf9-4147-b154-cbc09d0a38c8,Indah Firmansyah,081613137527,Mobil,B 2064 DA,3.560744,98.685508,Medan Kota,medan,4.1,2437,2023-03-02 04:47:32,1
fc75fe1d-9e05-4ea7-b86a-8178fafd53dc,Arif Setiawan,086085585917,Motor,B 2015 YR,-6.265506,106.81855,Jakarta Selatan,jakarta,4.3,818,2022-03-19 03:57:15,1
b90cd537-d7df-4c6d-ac00-28759260252b,Gilang Rahayu,084319892231,Motor,B 3953 IW,-7.23959,112.76937,Surabaya Timur,surabaya,3.8,1193,2023-07-19 19:23:55,0
2956e2a0-3c50-4961-9616-44f5ab816bee,Citra Setiawan,083326083795,Mobil,B 3596 XY,-6.173409,106.879058,Jakarta Timur,jakarta,4.4,1191,2023-12-05 01:56:52,1
b94d89e0-c9f2-4008-bbe5-480c2a39c92a,Eko Pratama,089487920505,Mobil,B 8913 KN,-7.278471,112.686199,Surabaya Barat,surabaya,4.6,3384,2022-07-31 02:46:56,1
6984ceb9-a163-4208-92dd-8bccf49673be,Dinda Wati,089298606818,Motor,B 6473 SX,-7.260273,112.772495,Surabaya Timur,surabaya,4.2,910,2021-05-06 03:35:23,0
e85b8c9a-2908-4f9a-83c8-d59ddd6af2b0,Dewi Setiawan,086612426976,Mobil,B 4260 GP,-7.25871,112.740374,Surabaya Pusat,surabaya,4.4,3743,2022-02-11 13:27:53,0
c64918f4-32d1-45d7-8fd7-10d0ea42ca17,Fajar Kusuma,085979644969,Motor,B 4839 NC,-6.173245,106.918712,Jakarta Timur,jakarta,4.0,1830,2022-09-12 17:29:50,1
019a5b19-df70-46fe-9ba3-a668bffd11e0,Wahyu Firmansyah,083282287665,Motor,B 1473 PJ,-6.180799,106.884673,Jakarta Timur,jakarta,4.4,4820,2022-05-16 01:39:14,0
5745b5d6-e0cc-4763-bcaf-384393f44ea4,Arif Kusuma,084556111111,Motor,B 3113 HV,-6.175545,106.759675,Jakarta Barat,jakarta,4.7,2349,2023-10-23 19:59:43,1
31837f36-e620-49c5-9bf0-bd5d77c10f99,Eko Rahayu,084255882479,Motor,B 5112 HJ,3.555727,98.674604,Medan Kota,medan,3.8,1224,2022-06-21 10:11:03,1
31a4cf2d-db84-45db-8692-ade50f09c2f4,Lestari Utami,088527038652,Motor,B 6712 CB,-6.102976,106.858226,Jakarta Utara,jakarta,3.8,623,2022-07-13 23:08:06,1
657bca4b-5080-430b-9ed0-958b09bd41d9,Sari Pratama,084687827482,Motor,B 3495 QH,-7.223824,112.785902,Surabaya Timur,surabaya,4.0,1119,2022-11-19 10:26:04,1
62b650d0-723f-4f70-adb5-cf122040aec4,Hendra Wijaya,084590586438,Mobil,B 7489 JE,3.581225,98.695291,Medan Kota,medan,3.8,885,2023-02-05 08:44:01,1
efaa35af-f8d2-485c-837f-49fb744636a1,Putri Wijaya,086897795697,Mobil,B 3489 YW,-6.248752,106.804575,Jakarta Selatan,jakarta,4.6,872,2022-12-13 09:25:06,1
d3c68cb4-4a2e-4c6b-b794-75158b894a79,Fifi Hidayat,081193381474,Motor,B 2549 FY,-6.17187,106.765138,Jakarta Barat,jakarta,4.2,1000,2023-01-18 19:44:22,1
62cadf9d-2470-48d9-8013-c24a3b02936f,Budi Kusuma,086614642384,Motor,B 4216 CL,-6.113112,106.84884,Jakarta Utara,jakarta,3.8,767,2023-08-03 08:08:05,0
36d39b58-0a88-4469-a73c-4e6b49652bf7,Maya Kusuma,085497571787,Mobil,B 2482 LN,-6.151562,106.959606,Jakarta Timur,jakarta,3.9,4559,2023-04-24 08:42:20,0
01fdda62-1577-48d3-9a88-05b76da3d33b,Hendra Santoso,084653487447,Mobil,B 7343 AY,3.607011,98.733223,Medan Timur,medan,4.6,1320,2023-03-16 09:34:53,1
80f25a48-213d-4e4b-a6f6-af5ea0349d49,Lestari Anggraini,087251530069,Motor,B 2100 QP,-6.150588,106.953242,Jakarta Timur,jakarta,4.9,613,2023-12-16 21:30:48,1
48d7e342-0ebe-443b-8872-011ce8cccbcb,Fajar Wijaya,083942699509,Motor,B 2510 WE,-7.288329,112.703919,Surabaya Barat,surabaya,4.5,4016,2021-03-22 18:59:45,0
1f7c5943-bdb1-42d8-a931-c135f4b2cf3f,Reza Setiawan,083686661183,Motor,B 5572 SP,-7.283999,112.683608,Surabaya Barat,surabaya,4.4,742,2021-01-29 02:58:13,1
77f9a7d4-d7e6-4a8c-a9eb-a7b33c77ad38,Fifi Wijaya,086119527038,Motor,B 1024 FT,-6.25743,106.827974,Jakarta Selatan,jakarta,4.2,3606,2021-03-23 07:51:02,0
c9ac52a7-b4a8-4727-a44a-0ecd0a7e49ea,Arif Santoso,089952988028,Mobil,B 8210 NW,3.592347,98.659876,Medan Barat,medan,4.5,2393,2021-01-20 03:28:19,0
aa092c09-99e3-46cd-acfc-4414edca2bb8,Mega Suharto,082984886793,Mobil,B 4520 LP,-7.284649,112.751108,Surabaya Timur,surabaya,3.9,4576,2023-02-22 06:50:12,1
59b19cf4-f4b9-4639-a6dc-69cef2beeec0,Ahmad Pratama,087783265878,Motor,B 6177 RU,-6.219278,106.90266,Jakarta Timur,jakarta,3.8,2020,2023-10-24 23:42:30,1
e9de73aa-d378-4085-aa20-be345bb1dc67,Ayu Setiawan,081761450152,Motor,B 9115 PT,3.577468,98.682188,Medan Kota,medan,4.4,4629,2021-03-11 14:28:32,1
4343bb19-0ddd-4a10-931f-d19696e94645,Budi Hidayat,083724445822,Motor,B 6162 TU,-6.112256,106.911338,Jakarta Utara,jakarta,4.6,2892,2021-02-13 09:40:57,0
cb5f74f0-ec92-43a5-89bd-58d98690bb92,Bagas Hidayat,087472749461,Motor,B 8105 TB,3.567867,98.69698,Medan Kota,medan,4.2,1987,2021-12-17 02:22:20,1
86ce3dfc-fef9-448f-8c6c-5e8d7892579d,Fifi Wijaya,082447426047,Motor,B 2917 VM,-6.153994,106.822667,Jakarta Pusat,jakarta,4.3,195,2023-06-11 14:57:12,1
68d7c52b-0203-438a-9061-e81414f41400,Hendra Pratama,089561669590,Motor,B 7404 TA,3.593505,98.726046,Medan Timur,medan,4.4,3462,2023-09-13 09:55:58,1
e0ea4071-a7aa-4d8d-a304-4fec97f7566d,Ayu Setiawan,082929815262,Motor,B 3716 FH,-6.122906,106.842092,Jakarta Utara,jakarta,4.1,3764,2022-05-08 03:42:05,1
859ba1cc-1734-48ab-8def-9d3dfb35e97e,Siti Rahayu,088827724621,Motor,B 1460 UC,-7.250916,112.682556,Surabaya Barat,surabaya,4.9,4394,2022-11-22 04:00:16,1
39548291-94b5-4717-885f-0ef1bdfdaf49,Arif Wati,086676612404,Mobil,B 8977 XY,-6.188326,106.909594,Jakarta Timur,jakarta,4.8,4489,2023-02-23 13:30:06,0
416d181a-6574-4025-aed5-698ad4f1c4d7,Rizky Wati,087438307418,Mobil,B 3147 AB,-6.194639,106.830991,Jakarta Selatan,jakarta,4.1,3492,2021-11-27 10:55:56,1
75e98c5c-8e29-437d-9b06-00e1de2e7334,Aldi Rahayu,086651618519,Motor,B 7565 OU,-7.278633,112.689435,Surabaya Barat,surabaya,3.5,547,2023-06-01 05:54:21,0
70e994f3-fdd3-4e17-96b1-1cfc8f691459,Citra Anggraini,084896987889,Motor,B 5216 GR,3.550169,98.686679,Medan Kota,medan,4.3,733,2022-07-04 04:59:03,1
f0232daa-92de-4325-a7e0-472a84c1dc9c,Arif Rahayu,089881521013,Motor,B 7076 VG,-6.131797,106.740506,Jakarta Barat,jakarta,4.0,4448,2022-05-14 08:46:19,1
d602cf22-c1a2-4739-b821-f4dd5847c069,Indah Saputra,081869255753,Motor,B 4580 ZO,-6.163582,106.745502,Jakarta Barat,jakarta,4.1,813,2023-03-22 10:47:11,1
8f09b8b7-010c-4445-b20a-73f623954333,Dewi Anggraini,085990045558,Motor,B 4789 UL,-6.15611,106.785657,Jakarta Barat,jakarta,3.7,3344,2023-07-11 12:50:25,1
804fa85b-5509-4e48-b6ab-2ec9c260c9ce,Rina Rahayu,088388073982,Motor,B 5229 XZ,-7.297413,112.703188,Surabaya Barat,surabaya,4.5,69,2021-04-18 02:56:44,1
c8c6026d-fb3d-412a-a594-03d9ea0f4374,Bagas Wijaya,087549052743,Motor,B 4054 IJ,-7.26366,112.689205,Surabaya Barat,surabaya,4.8,2975,2023-02-10 23:44:02,1
572d88ff-9de9-48c6-a903-bcd35e1760c0,Mega Firmansyah,081931163742,Motor,B 7601 YS,-6.147541,106.765196,Jakarta Barat,jakarta,4.0,4796,2021-12-12 01:32:42,1
f94b8d97-9086-40c5-b1b0-7345ac5d91b3,Sari Putra,085428202345,Motor,B 1703 BW,-6.159767,106.846929,Jakarta Pusat,jakarta,4.2,2764,2023-07-16 17:08:39,1
bc75d04b-d6ab-4283-bea6-143ef186a8a5,Mega Wati,086913056530,Motor,B 5702 ZC,-6.261663,106.855425,Jakarta Selatan,jakarta,4.7,4185,2021-08-11 12:43:55,1
b4ea1b59-ea9b-425f-90fa-211e044cacf7,Reza Rahayu,088853522448,Motor,B 6339 OG,3.605662,98.651281,Medan Kota,medan,4.4,1813,2023-07-30 16:56:39,0
87803263-8b81-484a-b686-791b587b82cc,Sari Rahayu,085515964812,Motor,B 7443 FY,3.594784,98.677906,Medan Kota,medan,4.7,4817,2023-08-09 07:23:38,1
7e2d52c2-9411-4bd7-be06-939748ddbf3f,Gilang Putra,085039222651,Motor,B 6219 NT,3.647277,98.74152,Medan Timur,medan,4.8,3818,2021-09-09 02:00:37,1
5e5a5f93-2234-4e02-b351-3f597e177994,Fifi Setiawan,087490523437,Motor,B 8769 GM,3.56731,98.699159,Medan Kota,medan,3.8,403,2021-05-30 10:28:22,1
e5a0f89c-1106-4f6e-8b50-20b8c9ac42c6,Fajar Nugroho,084682789059,Motor,B 3013 RJ,-7.251131,112.739667,Surabaya Pusat,surabaya,3.9,4060,2023-04-10 10:13:23,1
e118deb2-e2b0-4b4c-9861-9e202533945f,Putri Suharto,081686397945,Motor,B 2000 FK,3.590211,98.687988,Medan Kota,medan,4.7,4236,2022-12-11 19:05:23,1
9f9763a6-cf23-48b4-9566-d8e7caa3c827,Fajar Santoso,083231008538,Motor,B 4793 OY,3.559953,98.635469,Medan Barat,medan,4.7,2845,2022-04-14 08:03:27,1
0cd9feb9-36a2-46e3-91ec-29e581eeefd7,Rizky Putra,081022874870,Mobil,B 5552 ZV,3.596295,98.734315,Medan Timur,medan,4.2,2968,2023-10-29 23:12:57,1
00de3fa2-1efc-4d39-8d32-f4093c06f482,Maya Pratama,083577040431,Motor,B 9784 ML,-7.25326,112.693706,Surabaya Barat,surabaya,4.3,2627,2021-04-21 05:09:20,1
144faf7e-c53c-40c2-b9b4-fbd8d3f9ca1d,Dimas Suharto,087824151403,Motor,B 3841 ZF,-6.146533,106.834444,Jakarta Pusat,jakarta,4.8,191,2022-09-01 01:03:07,1
2386e2b8-8e8b-49f0-89dd-3870b8cf2654,Ahmad Utami,082068741131,Mobil,B 9359 WO,3.59791,98.710189,Medan Kota,medan,4.3,181,2022-04-10 11:35:35,0
c86ff0ac-01a9-4137-bc3f-645d827c3cbe,Aldi Kusuma,082753278602,Motor,B 2244 OP,-7.296828,112.793052,Surabaya Timur,surabaya,4.0,646,2022-12-24 03:19:34,1
7f301443-f8a2-48c5-b961-dfc7682ea448,Indah Kusuma,083585554831,Motor,B 7697 AW,-7.240657,112.798897,Surabaya Timur,surabaya,4.0,2308,2023-01-24 02:48:55,1
adc02abf-60db-4191-aab9-66bcf1a3969d,Nisa Santoso,085576173313,Mobil,B 6262 EP,3.63268,98.700952,Medan Timur,medan,3.8,4576,2022-01-18 16:08:07,1
9a9ca15d-2ba6-40b3-84a4-9ba071415633,Yoga Setiawan,083028686854,Motor,B 9444 WT,-7.263615,112.746919,Surabaya Pusat,surabaya,4.3,79,2021-06-20 18:26:24,0
c64c7a2c-5cbd-42e1-9f3e-4a434d1e84e4,Ahmad Hidayat,088765214746,Motor,B 4525 PA,-6.145776,106.76149,Jakarta Barat,jakarta,3.9,252,2023-04-21 17:56:35,1
31ee7725-3714-4f79-a51d-284929173632,Dimas Anggraini,081528640625,Mobil,B 5773 HS,-7.273956,112.665732,Surabaya Barat,surabaya,3.9,4971,2021-06-29 22:51:26,1
b7295177-6330-46b0-991e-dd4708c65a43,Yoga Suharto,087913194364,Mobil,B 3205 BS,-7.261987,112.76387,Surabaya Timur,surabaya,4.5,1084,2023-02-08 10:28:54,1
351f9107-9876-4382-8d6c-618e867f41ff,Rina Rahayu,081789869984,Motor,B 4114 UV,-7.218099,112.752973,Surabaya Timur,surabaya,4.6,186,2021-08-19 14:03:22,1
ce1ab064-814e-435e-ae3e-a87b7bd9d3d4,Dimas Pratama,087547925037,Motor,B 3649 RD,3.592999,98.707125,Medan Timur,medan,3.8,4703,2022-12-29 15:11:32,1
d4468908-064d-405b-8cf5-d42ce28156b8,Indah Pratama,082860628582,Mobil,B 2406 BG,3.593291,98.672007,Medan Barat,medan,4.3,935,2021-07-04 16:51:47,0
a2924af8-005f-493d-b8a4-8a5f613ae401,Siti Firmansyah,082659937325,Motor,B 2078 HB,-6.148248,106.859717,Jakarta Pusat,jakarta,4.8,4816,2023-08-23 11:24:51,0
c2431ca4-2ed8-4b10-a54e-afcf71d399ca,Lestari Hidayat,084796288211,Mobil,B 9051 AP,-6.128114,106.898289,Jakarta Utara,jakarta,3.5,2398,2022-06-09 16:56:46,0
6836c764-0d26-44bd-818f-2e5b23aea530,Dinda Saputra,084230563960,Motor,B 7543 SD,-6.162541,106.836526,Jakarta Pusat,jakarta,4.4,2932,2023-01-24 09:36:57,1
52de9968-ec47-408f-ad95-147cfa24681a,Budi Suharto,085145461656,Motor,B 8123 KJ,-7.294268,112.68976,Surabaya Barat,surabaya,4.6,4080,2023-03-29 07:15:52,1
49e30c70-9e45-475b-8da6-23c7523fe1b9,Bagas Setiawan,085967384087,Mobil,B 2209 VD,-7.257971,112.743108,Surabaya Pusat,surabaya,4.8,3647,2021-03-31 07:21:09,1
f0d06e0b-8429-4111-b50f-9f1526b65e18,Fifi Putra,081111797966,Mobil,B 2497 RB,3.580644,98.66808,Medan Barat,medan,3.7,274,2021-10-22 13:45:18,1
056e4856-20aa-4497-86eb-b04580233c91,Tari Putra,085034914143,Motor,B 7731 GL,3.571598,98.653233,Medan Barat,medan,4.4,1298,2023-08-31 04:46:50,1
7d3462ae-0fb0-4e29-b508-38de2f2e8a15,Reza Santoso,086768312716,Motor,B 6022 OQ,-7.28494,112.704657,Surabaya Barat,surabaya,5.0,4205,2023-06-16 23:34:50,1
41c3ce3f-66f3-4efb-84b4-95726eb8b3a3,Yoga Nugroho,087258664514,Motor,B 6036 EK,3.581175,98.661137,Medan Barat,medan,4.9,4107,2021-02-02 16:46:54,0
33894ed1-5949-43f9-8613-b952e4e3c28b,Budi Putra,083472951365,Motor,B 7775 AA,-7.292748,112.657992,Surabaya Barat,surabaya,3.7,2648,2021-10-17 21:57:32,1
3ab092d6-f835-40dd-8d0e-c6218c804f5d,Arif Suharto,082795585448,Motor,B 5326 YD,-6.266895,106.839866,Jakarta Selatan,jakarta,4.2,1748,2023-06-09 14:43:49,1
e218b316-6b65-45c3-bd51-5c4801a80508,Dinda Wijaya,089878532960,Motor,B 7725 NA,-6.128333,106.821492,Jakarta Utara,jakarta,4.4,2006,2022-05-29 05:01:59,1
eb06bc3d-2bb9-4bd7-94c1-25cdf07f19a9,Fajar Saputra,083923041573,Motor,B 4197 MX,-7.270132,112.695791,Surabaya Barat,surabaya,3.6,2924,2023-12-20 17:53:12,0
7b319878-5dd3-4df3-a399-8e4a672825ab,Ahmad Rahayu,089665406171,Mobil,B 7759 VF,-6.151211,106.830074,Jakarta Pusat,jakarta,4.9,4129,2022-10-27 00:08:32,1
c1051ecf-e1dc-4b40-9736-b9fb88f1f54e,Citra Wijaya,085820416193,Motor,B 4095 BZ,-7.253797,112.748939,Surabaya Pusat,surabaya,4.5,4300,2022-11-12 04:06:05,1
bd45ee08-a06d-419a-8cb9-b5e7c7d924f4,Budi Anggraini,085549574959,Mobil,B 6861 LC,-6.228882,106.971787,Jakarta Timur,jakarta,4.0,3303,2023-08-25 00:33:34,1
dc5c7f56-d541-4093-89fe-ba4bdd594358,Wahyu Putra,088018986959,Motor,B 9304 UA,-6.219097,106.83627,Jakarta Selatan,jakarta,4.4,568,2023-05-26 11:50:37,1
ca629bd6-ff48-4a61-9065-715fe5eda05a,Gilang Anggraini,087735087928,Mobil,B 8586 UZ,3.584884,98.634006,Medan Barat,medan,3.7,4849,2022-06-07 00:47:25,0
bef4fb59-0eae-4afa-a049-45b93a29088a,Kevin Wati,086068632978,Motor,B 3532 CW,3.603067,98.731682,Medan Timur,medan,4.2,2327,2022-02-06 02:53:13,1
36bdcc79-6115-4283-9ed5-db3439b94a56,Putri Pratama,087155083761,Motor,B 5800 RC,-6.138092,106.768796,Jakarta Barat,jakarta,3.8,4422,2021-06-30 21:28:47,1
47f959a3-ec78-48fd-93a6-b6a22958a971,Bagas Suharto,089546866309,Motor,B 8330 GK,-6.218406,106.819286,Jakarta Selatan,jakarta,3.7,2169,2021-02-24 05:20:00,0
9bb03ca0-5de2-4fff-81b3-1b11b50e3489,Ahmad Pratama,082315571433,Motor,B 8067 XL,-6.137468,106.814251,Jakarta Barat,jakarta,3.7,2558,2021-03-28 00:46:05,1
d3a36d36-dc78-4686-b93c-92d3466cfc1f,Fajar Wijaya,089133864542,Motor,B 4896 QF,3.562567,98.643991,Medan Barat,medan,4.1,822,2021-08-26 19:37:50,1
8208addf-5ae6-4155-93b6-3ee31f034c6c,Arif Pratama,083470330000,Motor,B 1548 TL,3.590105,98.659198,Medan Kota,medan,3.7,1798,2023-11-27 17:09:14,1
6abab628-66fd-4373-80a3-a8c51f50cabc,Maya Hidayat,082257126836,Motor,B 3478 LW,-7.236453,112.733122,Surabaya Pusat,surabaya,3.6,4444,2023-01-07 06:05:02,1
be4f0aac-ded2-4cc7-9334-0c5f805bd75c,Bagas Pratama,082139122722,Motor,B 8906 LP,-6.256144,106.834828,Jakarta Selatan,jakarta,3.5,2396,2021-02-14 17:44:39,0
ecfb223c-fb35-48c6-8e59-41155e075771,Mega Suharto,083963943809,Motor,B 8203 UI,-6.136262,106.902669,Jakarta Utara,jakarta,4.3,879,2023-05-22 20:40:10,0
12f32638-eeea-408e-be32-ffa3e1bea903,Arif Rahayu,082789520217,Mobil,B 8079 JF,-6.158242,106.847676,Jakarta Pusat,jakarta,4.7,4174,2022-01-29 06:08:24,0
17a29826-f54b-4abe-9f28-22e58f4c93e6,Ahmad Nugroho,089899309976,Motor,B 9845 MT,-7.293787,112.660715,Surabaya Barat,surabaya,3.7,2331,2021-09-07 17:02:06,1
6e2d2cb3-a887-460a-95b4-11a53f0867a3,Aldi Wijaya,081528519758,Motor,B 2774 DD,-7.26102,112.747012,Surabaya Pusat,surabaya,4.2,2467,2021-02-01 17:59:47,1
eec899f2-c704-4c10-ae06-54fd818b29fb,Citra Nugroho,083973895715,Motor,B 9362 BL,-7.272793,112.696065,Surabaya Barat,surabaya,3.7,3802,2021-01-06 19:33:02,1
e28cf71d-0067-4cc1-8461-9816fa82a4b5,Dinda Putra,081794348260,Motor,B 7819 VH,-6.158305,106.932161,Jakarta Timur,jakarta,4.9,3474,2021-07-21 11:05:22,1
c0e33155-1696-47ea-8ce3-68cdc2997637,Kevin Nugroho,082488090955,Mobil,B 9122 NP,-7.233246,112.746612,Surabaya Pusat,surabaya,4.8,2108,2021-04-13 23:50:48,0
3b97fda7-20ba-48a2-8fdf-d499bb064c92,Tari Setiawan,089780271405,Motor,B 6112 IV,3.578358,98.688371,Medan Kota,medan,3.7,2805,2021-04-01 11:15:50,1
f6e331ae-7017-42b3-bd80-81be88ba6326,Putri Wati,085539815956,Mobil,B 5799 KD,-7.225332,112.775557,Surabaya Timur,surabaya,3.8,2712,2021-10-03 18:03:46,0
b4fabd4e-639d-41c1-9e16-4cb0d9fd9f71,Ayu Wijaya,085359506375,Motor,B 6177 IC,3.597396,98.652231,Medan Barat,medan,4.5,4426,2021-11-27 14:14:10,1
dfd4a0d2-73c7-41f4-9a26-e06b73690fae,Dewi Setiawan,086279446086,Motor,B 1391 MG,-6.169704,106.867612,Jakarta Pusat,jakarta,3.9,4329,2023-11-16 09:22:02,1
ca2e18fb-3663-472a-a530-0f9857e48956,Dinda Wijaya,081048780100,Motor,B 7169 QX,3.628173,98.724579,Medan Timur,medan,4.8,1513,2022-11-06 16:00:10,1
8ab3772f-a6fa-4d75-b6fc-2a1d9e0e0ac5,Mega Utami,083381204021,Mobil,B 1189 AK,3.607176,98.662794,Medan Kota,medan,3.7,682,2021-11-22 18:29:14,0
73a21a3c-555c-4a30-8f84-e6d5f8a87cd1,Dimas Setiawan,086125759090,Motor,B 2614 CU,-6.157918,106.963851,Jakarta Timur,jakarta,3.9,4504,2022-03-01 11:23:32,0
6d64f635-f6cc-4903-b312-14d9e2afc18d,Citra Suharto,086925677030,Motor,B 2123 YX,3.578901,98.674287,Medan Kota,medan,4.1,1038,2023-01-04 13:04:51,1
da0cb5be-a4af-4671-a222-5e08f49d4065,Rina Santoso,081366371302,Motor,B 2850 UV,3.59341,98.745116,Medan Timur,medan,4.4,1838,2022-11-07 07:58:46,1
4d1c6acc-212e-4b5d-bad9-bc661187a230,Arif Suharto,087911315257,Motor,B 4181 HU,-6.112216,106.899821,Jakarta Utara,jakarta,4.8,1320,2022-01-08 15:20:46,1
99136e16-2d57-41b1-8d63-10a19f671f8a,Nisa Pratama,088138792473,Motor,B 7410 BO,-7.274618,112.768683,Surabaya Timur,surabaya,3.9,589,2022-09-03 15:46:41,1
7698660d-0a0f-4f31-a3c1-b4fe36034270,Citra Utami,086416894383,Motor,B 8740 UK,3.566166,98.635096,Medan Barat,medan,4.9,963,2023-09-12 10:46:59,1
59da5fc0-fce8-41a1-9c2f-f4b3acbb948c,Sari Suharto,086060235093,Motor,B 4279 HZ,3.568813,98.659598,Medan Kota,medan,4.7,3916,2021-05-24 14:21:08,0
ecb44133-afac-48ea-b4a6-a17e47d5406d,Bagas Wati,084489228028,Motor,B 1360 QX,3.634796,98.718007,Medan Timur,medan,4.8,3714,2022-12-23 18:18:39,1
6544e45d-730a-4767-9eaa-b20527d30a5a,Budi Utami,082776775582,Mobil,B 2205 JA,3.645711,98.707706,Medan Timur,medan,5.0,2344,2022-08-09 11:36:27,1
73f83556-8da6-4cfb-bad1-4426ee2b1abe,Dinda Pratama,086524752596,Motor,B 8373 XK,-6.120111,106.874185,Jakarta Utara,jakarta,3.7,2987,2021-09-08 14:37:53,1
f623f366-4433-4969-946d-f8a39c784ded,Wahyu Wijaya,082479432876,Motor,B 9605 FY,3.594963,98.662433,Medan Barat,medan,4.5,4960,2022-05-22 10:10:01,1
bf140e1d-7ada-46cd-a534-353058fa5e87,Ahmad Anggraini,082097323328,Motor,B 2843 ZW,-7.206029,112.765932,Surabaya Timur,surabaya,4.0,2559,2022-10-19 12:52:23,1
50e982c0-e1bc-419c-b7cc-6c427c759354,Maya Nugroho,088299963946,Motor,B 3416 ON,-6.223796,106.850046,Jakarta Selatan,jakarta,4.9,378,2021-06-07 07:24:40,0
45aeaa20-e897-48d5-b8a5-9621d79331ec,Siti Anggraini,085240734023,Motor,B 8659 BV,3.612092,98.693516,Medan Kota,medan,3.7,1945,2022-08-13 00:09:41,1
96bfe09b-05eb-4e1a-a124-24e66bc98b11,Wahyu Hidayat,085318430530,Motor,B 4548 NI,-7.238966,112.790318,Surabaya Timur,surabaya,4.1,4666,2022-08-15 21:54:52,1
90a85c65-3244-4e2f-bb31-b541a01cf6b9,Yoga Santoso,088432326877,Mobil,B 8769 DF,3.585903,98.639008,Medan Barat,medan,4.9,4409,2022-03-03 20:10:55,1
3d4779e8-df67-4b3f-b719-3070ea5b8382,Lestari Pratama,081368757852,Motor,B 6403 IN,3.570737,98.632914,Medan Barat,medan,3.6,4006,2023-06-22 22:39:39,0
5fdc06e1-35ab-4968-8e29-bad1b1f6d5ed,Dinda Putra,086579267197,Motor,B 7258 II,-7.29703,112.710159,Surabaya Barat,surabaya,4.8,4878,2023-12-10 05:45:25,1
ecfd0c1d-24d9-48f2-bebc-2fb64c440c5f,Rizky Setiawan,087461144210,Motor,B 6051 NR,3.598399,98.641541,Medan Barat,medan,3.6,1037,2021-10-03 03:08:14,1
3c129358-a364-4549-bb4c-92332d9ab2ca,Mega Pratama,081876797701,Motor,B 6538 SN,-7.255674,112.763723,Surabaya Timur,surabaya,3.7,3889,2022-02-15 09:05:58,1
6bb186c1-43b5-4ec5-a7e0-1cc6722db93e,Reza Wati,082983246253,Motor,B 5711 HU,-6.249946,106.842722,Jakarta Selatan,jakarta,4.8,201,2022-01-10 15:10:27,0
f850d38f-17a0-4bba-ba86-541c91f3a997,Nisa Setiawan,085774096655,Motor,B 4737 TC,3.577471,98.692926,Medan Kota,medan,4.1,4997,2021-06-11 02:50:32,1
f29387e6-c879-4405-b910-7f32db125429,Ayu Pratama,082675004138,Mobil,B 7500 CM,-7.28101,112.70475,Surabaya Barat,surabaya,4.9,4121,2022-03-13 14:49:49,1
dc07f23d-9703-49f1-b395-d944c4a3a9d8,Dimas Wijaya,083253617739,Mobil,B 5995 QD,-6.234835,106.955764,Jakarta Timur,jakarta,4.8,1720,2021-10-06 23:38:41,1
4311ba2e-3a74-41f7-a506-7cd03ef696f6,Ayu Utami,087524466071,Motor,B 9626 KL,3.58363,98.718849,Medan Timur,medan,3.9,297,2022-09-01 05:37:35,1
d4bac8aa-07bf-4412-b1c8-f93059a6d20e,Citra Firmansyah,086017140551,Motor,B 8955 RS,-7.239445,112.762493,Surabaya Timur,surabaya,4.6,4734,2021-11-30 08:38:08,1
042fe5a5-798b-4344-9bdc-e3891004faac,Rina Pratama,087527962922,Motor,B 8470 LC,-6.2402,106.923583,Jakarta Timur,jakarta,3.7,2467,2023-05-20 03:23:23,0
7d64230b-fef6-4524-8b48-f62746cf483c,Sari Wijaya,081142696764,Motor,B 1992 EF,3.579555,98.665323,Medan Barat,medan,3.9,821,2023-01-27 04:56:28,1
1e886613-375d-4265-8c14-7764a8095cc2,Wahyu Wati,089053237656,Motor,B 4424 CE,-7.247633,112.736384,Surabaya Pusat,surabaya,3.9,3353,2023-01-29 21:12:02,1
4762138a-1d25-49de-9c77-0a8c84ad15eb,Putri Pratama,086783653480,Motor,B 5664 CD,-6.144836,106.83443,Jakarta Pusat,jakarta,4.4,4341,2022-12-27 13:53:23,1
09e245b0-b6d4-47b5-aa6f-37534a613ee3,Tari Pratama,084315368465,Motor,B 2303 GB,3.611412,98.678854,Medan Kota,medan,3.6,3801,2021-10-17 03:53:17,1
6ab266c6-a2f9-4def-9fb6-38a956795df5,Yoga Wijaya,087432878832,Motor,B 4612 DN,-7.289697,112.681653,Surabaya Barat,surabaya,4.2,3439,2021-08-01 20:02:50,0
84ec7b77-0f1c-4752-aaaa-06d8ffec9450,Arif Rahayu,084984592001,Motor,B 5705 JE,-7.244948,112.782957,Surabaya Timur,surabaya,4.5,2026,2021-12-08 02:33:21,1
fed9aff4-a97e-421c-82c7-960eea4634bf,Fajar Firmansyah,089132548236,Motor,B 9122 JM,-6.163969,106.822444,Jakarta Pusat,jakarta,4.9,4326,2023-01-16 16:42:34,1
0e67dfa7-fe03-45c6-87f8-a95a4f7c5a63,Ahmad Pratama,086917281420,Motor,B 6758 WZ,3.58856,98.674803,Medan Kota,medan,4.6,3710,2023-07-21 05:09:05,0
9508f893-187a-4781-b65f-e1af50655a7a,Bagas Firmansyah,084723438219,Mobil,B 9388 NP,-7.209147,112.777941,Surabaya Timur,surabaya,4.4,1843,2023-08-15 16:53:37,1
743b015d-99a0-43a0-8e14-1e280bc29ed2,Maya Saputra,088688697661,Motor,B 9056 FA,3.595412,98.715047,Medan Timur,medan,3.7,1697,2022-05-07 13:36:35,1
6cd6370f-a671-49ea-a1c3-6c9c6106257b,Dewi Wijaya,084366022100,Motor,B 4971 RZ,-6.164419,106.868084,Jakarta Pusat,jakarta,4.9,1870,2022-01-14 18:38:24,1
011efbd6-f479-4a96-99f5-6631fdefffae,Lestari Suharto,088328208190,Motor,B 6300 WV,-6.12278,106.888544,Jakarta Utara,jakarta,4.5,1110,2022-03-10 01:40:10,1
f0fcf3b4-f6d3-43a9-abcd-cf10bde8713c,Rizky Wijaya,086963410680,Motor,B 6447 WD,3.636271,98.70222,Medan Timur,medan,4.8,2057,2023-10-07 10:05:20,1
9713ef0b-73a6-49b7-aaf6-fac4f34ca855,Rizky Santoso,083992350343,Mobil,B 7557 ED,-6.222562,106.874606,Jakarta Timur,jakarta,3.7,4563,2021-02-01 12:13:46,0
d0569c24-9222-4b7c-9d9d-128fc882a646,Bagas Utami,082024469806,Motor,B 9397 EC,-7.258937,112.746855,Surabaya Pusat,surabaya,4.4,4732,2021-06-24 06:24:52,1
4e71a986-6bf2-44da-b79c-dc06acee6ab9,Indah Suharto,081880885414,Motor,B 1342 CV,-6.235336,106.975652,Jakarta Timur,jakarta,4.9,3447,2022-03-30 01:15:39,1
8bd893cc-60b3-4b8e-af94-a991a5014617,Dinda Anggraini,085261786411,Motor,B 2212 UH,3.592367,98.675755,Medan Kota,medan,3.9,640,2022-06-10 09:36:32,1
f800200c-792e-448b-a911-4ae48acef051,Yoga Pratama,088728010119,Motor,B 3560 GL,-6.131112,106.829379,Jakarta Utara,jakarta,4.6,3298,2022-01-12 05:59:22,1
b4e0220a-e058-471c-b768-8c6c1325e616,Gilang Hidayat,083146255069,Mobil,B 2706 TY,-7.258702,112.661702,Surabaya Barat,surabaya,4.6,4693,2021-05-27 20:43:30,0
f56f185c-c4e8-472d-9454-ccb021ade599,Kevin Wati,083510733368,Mobil,B 3215 VI,3.581068,98.712626,Medan Kota,medan,4.8,1924,2022-09-08 04:00:19,1
6b26e09f-649c-4bf2-b388-2919d09af67d,Lestari Rahayu,089448557858,Motor,B 8069 WI,-7.269504,112.743764,Surabaya Pusat,surabaya,4.9,3137,2023-11-06 16:26:13,0
1b023b76-8f95-4ee6-aca6-8bcc7559aaf3,Dinda Anggraini,087352064596,Motor,B 3572 SD,3.597302,98.654599,Medan Barat,medan,5.0,1674,2023-09-16 05:21:04,0
b29ab8c1-4e67-48e1-ab0f-b73c405d99e7,Dewi Suharto,088536328583,Motor,B 1511 CX,3.603244,98.714634,Medan Timur,medan,4.7,19,2021-12-06 19:17:41,1
6aaa21d5-5812-4b6f-b91f-9aecfbc6e786,Eko Firmansyah,087440052286,Motor,B 4299 MI,3.566662,98.690899,Medan Kota,medan,4.9,3036,2022-08-20 01:15:59,0
d95be1e5-46a4-419b-94ea-97818bf8ca30,Hendra Santoso,085867229890,Motor,B 1869 XJ,-6.154228,106.862137,Jakarta Pusat,jakarta,4.7,2228,2021-01-30 08:41:44,0
a93cd89c-4fd7-4ed4-8122-2b0c95a6e2f6,Ahmad Rahayu,086922619201,Mobil,B 3493 WH,3.565565,98.672532,Medan Barat,medan,5.0,113,2021-08-01 23:48:34,1
d19d0575-1b88-4655-80c2-59f5de1d1f8f,Sari Suharto,084754517960,Motor,B 1676 PJ,3.649032,98.706332,Medan Timur,medan,4.8,1414,2023-08-18 22:54:41,1
204e8d9e-7c9f-406f-8bc3-1a8b95944fc6,Yoga Firmansyah,084545970000,Motor,B 1857 AC,-7.262151,112.739757,Surabaya Pusat,surabaya,3.5,2704,2022-11-05 06:14:47,0
bd9d7082-0b2a-4b78-90e1-3e494ae32c8d,Maya Hidayat,084291771885,Mobil,B 5978 JE,3.583528,98.746929,Medan Timur,medan,5.0,1262,2021-06-28 15:29:30,0
0698931f-e5e4-49ce-bc89-6fb4a7299040,Citra Kusuma,089877114051,Mobil,B 8973 SZ,-7.258482,112.68664,Surabaya Barat,surabaya,4.2,4767,2021-12-30 10:25:30,1
c76454e5-026e-4aad-b2c6-d16fde4bd178,Fajar Wati,085673578917,Motor,B 3106 ZV,-7.269014,112.71773,Surabaya Barat,surabaya,3.8,705,2022-05-06 16:11:44,1
b7766c39-07aa-4244-9c96-d071ebad273b,Kevin Utami,084683408940,Motor,B 6128 OK,-7.298333,112.698175,Surabaya Barat,surabaya,4.3,204,2021-02-25 08:57:03,1
3e08a83b-1677-4ba3-b479-a6e9db50396b,Ahmad Kusuma,084359824865,Mobil,B 4851 PV,-7.284662,112.682162,Surabaya Barat,surabaya,4.4,4441,2022-02-21 16:10:21,1
675a857e-4461-4137-8cf6-7fe76c45881a,Lestari Pratama,083179592118,Mobil,B 1844 OQ,-7.264133,112.730082,Surabaya Pusat,surabaya,4.7,3158,2021-04-16 10:03:29,0
d5ed7f33-1e58-45bd-87c8-a8ce627eb391,Eko Firmansyah,082760072772,Motor,B 2707 ZL,-7.212576,112.76173,Surabaya Timur,surabaya,4.6,2965,2022-12-04 17:05:54,1
78dab79c-8252-454e-95db-c3df88255cd5,Wahyu Kusuma,086114961683,Motor,B 8429 LJ,-6.185847,106.80474,Jakarta Selatan,jakarta,3.7,4358,2023-03-20 17:44:10,1
6a95fa38-5e01-43ca-a650-0f57a1892c9c,Gilang Firmansyah,082028259728,Motor,B 3442 GJ,-6.143019,106.8507,Jakarta Pusat,jakarta,4.3,318,2022-10-12 14:52:11,1
ba2b1ab1-1319-42f9-92a1-15c0aac56446,Wahyu Anggraini,087129283146,Mobil,B 9372 LP,-7.27293,112.766591,Surabaya Timur,surabaya,3.8,1106,2021-11-23 05:35:15,1
653d2c01-a6b9-466a-b373-d109123ee934,Rizky Hidayat,087041368475,Motor,B 1795 TE,-7.275997,112.680933,Surabaya Barat,surabaya,3.7,3634,2021-03-03 15:36:06,1
7ac4b161-a656-4db5-8ebd-0c4c96bb18f9,Budi Saputra,083425680461,Mobil,B 5735 UX,-7.236945,112.739716,Surabaya Pusat,surabaya,4.2,2206,2022-01-11 13:39:13,1
acf77096-2270-4045-ab94-80c3feae965c,Arif Rahayu,089069959675,Mobil,B 7081 CL,-6.11877,106.915932,Jakarta Utara,jakarta,4.9,1175,2021-05-31 07:30:56,0
60a47994-82f9-4a4e-8442-7bbabfacea89,Yoga Suharto,082458982141,Motor,B 8787 NY,3.580409,98.636942,Medan Barat,medan,5.0,4201,2022-09-27 14:21:37,1
e313d89f-9e75-464b-a303-2176cee2bc88,Putri Saputra,081194655387,Motor,B 2009 GE,-7.238978,112.777433,Surabaya Timur,surabaya,5.0,1828,2022-07-29 20:58:33,1
900acbe2-4493-4de6-8831-61ecaeb140b7,Fifi Nugroho,083311484006,Motor,B 7781 AA,3.622256,98.718032,Medan Timur,medan,4.5,2417,2021-08-06 11:50:00,1
077e6e66-74fd-4ca6-906d-2e0d75bb5a1f,Yoga Nugroho,084192965419,Mobil,B 8599 ZB,-7.235905,112.746958,Surabaya Pusat,surabaya,4.2,718,2021-03-08 07:51:52,0
b893165e-a169-4f7d-8b5e-83927ea176e1,Ahmad Anggraini,083994706649,Motor,B 4669 EF,-7.23253,112.744864,Surabaya Pusat,surabaya,3.8,1316,2022-01-23 23:39:57,1
b95faccd-e9d8-463e-910c-9ec74f739512,Maya Saputra,084352765884,Motor,B 8040 WK,-7.288811,112.698161,Surabaya Barat,surabaya,4.1,1136,2022-08-30 03:37:26,0
fec0cdb5-ca1b-48fc-99a1-1523ee3baa44,Ahmad Wati,086039593586,Motor,B 5110 KS,-7.255887,112.709778,Surabaya Barat,surabaya,4.9,1538,2021-09-18 11:47:38,1
fb62f984-7cd9-40ac-9576-786b76006f7a,Sari Wati,084339229657,Mobil,B 1809 TS,-7.251221,112.763918,Surabaya Timur,surabaya,4.1,454,2022-12-14 10:52:12,1
ce492028-ccbb-40b5-a32d-c9f5194b5207,Mega Firmansyah,081371703710,Motor,B 1979 QC,-7.269837,112.749036,Surabaya Pusat,surabaya,4.1,3044,2021-11-07 18:58:14,1
94de02a2-d834-4455-9aa9-36efaf39b3db,Lestari Wijaya,085696352145,Motor,B 3537 BW,-7.233927,112.768103,Surabaya Timur,surabaya,4.4,4584,2021-12-21 20:19:28,1
f0883039-4199-47ef-971c-0171879a0245,Fifi Rahayu,081120746639,Motor,B 3791 WX,-6.172459,106.762009,Jakarta Barat,jakarta,4.5,129,2021-03-24 01:27:33,0
957a7be9-c919-4f3a-aaf9-0ad3ccf8a4af,Hendra Rahayu,086798319025,Mobil,B 4468 VF,3.644504,98.706108,Medan Timur,medan,3.9,3288,2023-12-05 20:45:09,1
aff71a48-77dd-4f35-8a4d-c99045cb2d2d,Nisa Pratama,087792935977,Mobil,B 9338 AD,-7.232028,112.748394,Surabaya Pusat,surabaya,3.8,3461,2022-08-09 22:38:10,1
794b6081-b33d-47c6-a424-d1a0574bbd3a,Rizky Saputra,083148634436,Motor,B 6028 EX,-6.163792,106.842303,Jakarta Pusat,jakarta,4.3,4434,2021-05-21 09:17:51,1
0bb01c51-47e8-4abf-809b-931b3d871a09,Aldi Hidayat,088618803950,Mobil,B 9793 FO,-6.161824,106.805775,Jakarta Barat,jakarta,3.7,3766,2021-10-15 18:04:29,1
10af78b9-4951-40df-aab6-e7caf29b643e,Aldi Hidayat,081232600138,Motor,B 7591 HC,-6.188428,106.872442,Jakarta Timur,jakarta,4.1,403,2021-07-02 00:59:11,1
f074635f-b3c7-4adf-9bb2-7584d64a3c7e,Maya Firmansyah,083651889341,Motor,B 8864 NA,3.570709,98.696528,Medan Kota,medan,4.5,4008,2021-06-27 08:20:03,1
f120fe14-3ccf-49e6-98be-1bf78a8d2b93,Bagas Hidayat,084812958779,Motor,B 8629 AI,3.574017,98.661172,Medan Barat,medan,4.7,1250,2021-03-09 07:03:27,0
7fdbb9d7-b73a-4600-b1eb-845d04fd062b,Nisa Pratama,085689665399,Motor,B 5083 AW,3.600798,98.737154,Medan Timur,medan,4.5,1227,2021-07-21 02:16:19,0
69ba4cf4-95b7-4a66-90ff-35b7da5c0653,Dimas Suharto,083526336600,Mobil,B 1209 UU,-7.294107,112.667081,Surabaya Barat,surabaya,4.0,339,2023-08-23 13:00:05,1
90a268fa-b39a-4eef-a594-caa3d450abf8,Maya Rahayu,088939795973,Motor,B 3962 IA,-6.148608,106.86324,Jakarta Pusat,jakarta,4.6,4274,2022-04-03 18:30:49,1
a5a55aa7-bbe8-4ae9-9cf4-1e462b1527c1,Ayu Suharto,082064637674,Motor,B 4972 YE,-7.28527,112.663931,Surabaya Barat,surabaya,4.0,1098,2023-03-04 01:12:52,0
b44a630e-9bf1-42f9-b51f-0e3af202a317,Yoga Wijaya,083538284732,Motor,B 3487 PN,3.596936,98.631285,Medan Barat,medan,4.8,1705,2023-06-30 18:02:56,1
15df2e65-dac8-4ced-b7de-c5c2d36a4ef8,Nisa Putra,085177177290,Motor,B 7364 IG,-6.135862,106.919342,Jakarta Utara,jakarta,4.9,4203,2022-07-31 19:51:05,1
2992068e-437f-4b4a-8905-ab81183b10d9,Nisa Hidayat,089941679571,Motor,B 9467 VA,-7.264447,112.741637,Surabaya Pusat,surabaya,4.0,2014,2021-01-14 01:34:08,0
ee3524bf-d741-4057-8738-2b721cf11b44,Aldi Pratama,085013097521,Mobil,B 8762 HX,3.582026,98.732935,Medan Timur,medan,3.7,4403,2022-06-09 20:33:40,1
50b6bb82-b6cc-47df-86ae-091b7413cc49,Fifi Firmansyah,089844600056,Motor,B 6162 UU,3.568089,98.640903,Medan Barat,medan,3.9,1593,2021-09-21 10:31:48,1
91c00a62-3fbe-4f9e-9c8e-95e0686ee67b,Fajar Wati,085112566066,Mobil,B 9621 YJ,-7.226084,112.799262,Surabaya Timur,surabaya,4.8,2002,2021-12-05 18:45:37,1
9645083d-1927-418f-91fe-b938ed6078ae,Ahmad Firmansyah,083273530346,Motor,B 7449 MI,-6.134905,106.77992,Jakarta Barat,jakarta,4.6,4531,2022-07-21 22:11:23,0
aa6fafff-c203-4a1f-a297-1eff304409a4,Fifi Kusuma,086077145516,Motor,B 6177 DE,3.628277,98.718842,Medan Timur,medan,4.2,442,2021-05-29 01:29:33,1
93fad4bd-486f-4c1d-8d76-72bb6c6255ae,Ayu Putra,087311610942,Motor,B 6518 JL,-7.279622,112.752799,Surabaya Timur,surabaya,4.1,2769,2021-06-11 10:35:45,1
88ccd683-2ee7-4a91-a27c-6dc5e5c1d026,Indah Pratama,089982222693,Mobil,B 2244 JK,3.586249,98.713915,Medan Timur,medan,3.5,2507,2021-07-14 02:33:47,1
91925ce9-2432-4d73-8731-efd3f27e1fc3,Mega Putra,087518628922,Motor,B 1552 CU,-7.244499,112.757771,Surabaya Timur,surabaya,3.5,903,2023-11-09 19:51:08,1
ebcf55d2-a216-414d-b365-499c7a84c00e,Maya Suharto,083199719287,Motor,B 7875 JK,-7.256228,112.743281,Surabaya Pusat,surabaya,4.3,296,2023-10-05 20:57:25,1
2413b1a7-a3a6-41cc-a6de-056ffbd3d791,Mega Wijaya,088475871813,Motor,B 7534 GJ,-6.179973,106.970007,Jakarta Timur,jakarta,4.6,2936,2022-05-10 15:40:16,0
